INSTNM,ADDR,CITY,STABBR,ZIP,GENTELE,OPEFLAG,WEBADDR,ICLEVEL,CONTROL,HLOFFER,HBCU,HOSPITAL,MEDICAL,LOCALE,OPENPUBL,CLOSEDAT,IALIAS,INSTCAT,CARNEGIE,INSTSIZE,COUNTYCD,COUNTYNM,LONGITUD,LATITUDE
Community College of the Air Force,100 S Turner Blvd,Montgomery,AL,36114-0011,3346495000,3,http://www.au.af.mil/au/ccaf/,2,1,4,2,-1,2,12,0,-2,CCAF,4,40,-1,1101,Montgomery County,-86.244501,32.404904
Alabama A & M University,4900 Meridian St,Normal,AL,35762,2563725000,1,http://www.aamu.edu/,1,1,9,1,2,2,12,1,-2,AAMU,2,16,3,1089,Madison County,-86.57352,34.78422
University of Alabama at Birmingham,Administration Bldg Suite 1070,Birmingham,AL,35294-0110,2059344011,1,http://www.uab.edu,1,1,9,2,1,1,12,1,-2, ,2,15,4,1073,Jefferson County,-86.80446,33.50096
Amridge University,1200 Taylor Rd,Montgomery,AL,36117-3553,33438770007528,1,http://www.amridgeuniversity.edu,1,2,9,2,2,2,12,1,-2,Southern Christian University |Regions University,2,51,1,1101,Montgomery County,-86.171548,32.365021
University of Alabama at Huntsville,301 Sparkman Dr,Huntsville,AL,35899,2568246120,1,http://www.uah.edu,1,1,9,2,2,2,12,1,-2,UAHuntsville |UAH |University of Alabama Huntsville |Unversity of Alabama at Huntsville,2,16,3,1089,Madison County,-86.643936,34.723896
Alabama State University,915 S Jackson Street,Montgomery,AL,36101-0271,3342294400,1,http://www.alasu.edu,1,1,9,1,2,2,12,1,-2, ,2,21,3,1101,Montgomery County,-86.296158,32.36623
University of Alabama System Office,401 Queen City Ave,Tuscaloosa,AL,35401,2053489731,2,http://www.uasystem.ua.edu,1,1,9,2,2,-2,13,1,-2, ,-2,-3,-2,1125,Tuscaloosa County,-87.560429,33.213047
The University of Alabama,739 University Blvd,Tuscaloosa,AL,35487-0166,2053486010,1,http://www.ua.edu/,1,1,9,2,2,2,13,1,-2, ,2,15,5,1125,Tuscaloosa County,-87.54234,33.208811
Central Alabama Community College,1675 Cherokee Rd,Alexander City,AL,35010,2562346346,1,http://www.cacc.edu,2,1,3,2,2,2,41,1,-2, ,4,40,2,1123,Tallapoosa County,-85.947875,32.924383
Athens State University,300 N Beaty St,Athens,AL,35611,2562338100,1,http://www.athens.edu,1,1,5,2,2,2,32,1,-2, ,2,32,2,1083,Limestone County,-86.967621,34.805512
Auburn University at Montgomery,7440 East Drive,Montgomery,AL,36117-3596,3342443000,1,http://www.aum.edu,1,1,8,2,2,2,12,1,-2,AUM|Auburn University Montgomery|Auburn University at Montgomery|Auburn Montgomery,2,21,3,1101,Montgomery County,-86.17771,32.36839
Auburn University,"Auburn, Alabama",Auburn University,AL,36849,3348444000,1,http://www.auburn.edu,1,1,9,2,2,1,13,1,-2, ,2,15,5,1081,Lee County,-85.486107,32.603383
Birmingham Southern College,900 Arkadelphia Road,Birmingham,AL,35254,2052264600,1,http://www.bsc.edu,1,2,7,2,2,2,12,1,-2, ,2,31,2,1073,Jefferson County,-86.850359,33.517202
Chattahoochee Valley Community College,2602 College Drive,Phenix City,AL,36869,3342914900,1,http://www.cv.edu,2,1,3,2,2,2,22,1,-2,CVCC,4,40,2,1113,Russell County,-85.028995,32.428862
Concordia College-Selma,1804 Green St,Selma,AL,36701,3345269141,1,http://www.concordiaselma.edu,1,2,5,1,2,2,33,1,-2, ,2,33,1,1047,Dallas County,-87.0177,32.4254
South University-Montgomery,5355 Vaughn Road,Montgomery,AL,36116-1120,3343958800,1,http://southuniversity.edu,1,3,7,2,-2,2,12,1,-2, ,3,40,1,1101,Montgomery County,-86.217741,32.342503
Enterprise State Community College,600 Plaza Drive,Enterprise,AL,36330-1300,3343472623,1,http://www.escc.edu,2,1,3,2,2,2,32,1,-2,Enterprise-Ozark Community College (Former Name) |Enterprise State Junior College (Former Name),4,40,2,1031,Coffee County,-85.835009,31.299651
James H Faulkner State Community College,1900 US Hwy 31 S,Bay Minette,AL,36507-2698,2515802100,1,http://www.faulknerstate.edu,2,1,3,2,2,2,32,1,-2, ,4,40,2,1003,Baldwin County,-87.776669,30.852589
Faulkner University,5345 Atlanta Hwy,Montgomery,AL,36109-3378,3342725820,1,http://www.faulkner.edu,1,2,9,2,2,2,12,1,-2,Faulkner,2,32,2,1101,Montgomery County,-86.216358,32.381918
Gadsden State Community College,1001 George Wallace Dr,Gadsden,AL,35903,2565498200,1,http://www.gadsdenstate.edu,2,1,3,1,2,2,13,1,-2,GSCC | Gadsden State | Gadsden Community College,4,40,3,1055,Etowah County,-85.98997,33.994979
George C Wallace State Community College-Dothan,1141 Wallace Drive,Dothan,AL,36303-9234,3349833521,1,http://www.wallace.edu,2,1,3,2,2,2,13,1,-2,WALLACE DOTHAN|WCCD,4,40,2,1045,Dale County,-85.46796,31.31592
George C Wallace State Community College-Hanceville,801 Main St NW,Hanceville,AL,35077-2000,2563528000,1,http://www.wallacestate.edu,2,1,3,2,2,2,41,1,-2,Wallace State Community College |Wallace State - Hanceville,4,40,3,1043,Cullman County,-86.778259,34.072755
George C Wallace State Community College-Selma,3000 Earl Goodwin Parkway,Selma,AL,36703-2808,3348769227,1,http://www.wccs.edu,2,1,3,2,2,2,41,1,-2,Wallace Community College - Selma,4,40,2,1047,Dallas County,-87.014531,32.444291
Herzing University-Birmingham,280 West Valley Ave,Birmingham,AL,35209,2059162800,1,http://www.herzing.edu/birmingham,1,3,5,2,-2,2,21,1,-2, ,3,40,1,1073,Jefferson County,-86.832344,33.468136
Huntingdon College,1500 East Fairview Avenue,Montgomery,AL,36106-2148,3348334222,1,http://www.huntingdon.edu,1,2,5,2,2,2,12,1,-2, ,2,31,2,1101,Montgomery County,-86.285285,32.352002
Heritage Christian University,3625 Helton Dr,Florence,AL,35630-9977,2567666610,1,http://www.hcu.edu,1,2,7,2,2,2,41,1,-2, ,2,51,1,1077,Lauderdale County,-87.660709,34.860679
J F Drake State Technical College,3421 Meridian St N,Huntsville,AL,35811,2565398161,1,http://www.drakestate.edu,2,1,3,1,2,2,12,1,-2, ,4,40,2,1089,Madison County,-86.572561,34.771174
J F Ingram State Technical College,5375 Ingram Rd,Deatsville,AL,36022,3342855177349,5,http://www.ingram.cc.al.us,2,1,3,2,2,2,41,0,-2, ,4,40,1,1051,Elmore County,-86.381859,32.576179
Jacksonville State University,700 Pelham Road North,Jacksonville,AL,36265,2567825781,1,http://www.jsu.edu/,1,1,8,2,2,2,23,1,-2, ,2,21,3,1015,Calhoun County,-85.763653,33.824096
Jefferson Davis Community College,220 Alco Dr,Brewton,AL,36426,2518674832,1,http://www.jdcc.edu,2,1,3,2,2,2,32,1,-2,JDCC,4,40,2,1053,Escambia County,-87.08423,31.10199
Jefferson State Community College,2601 Carson Rd,Birmingham,AL,35215-3098,2058531200,1,http://www.jeffstateonline.com,2,1,3,2,2,2,12,1,-2,Jeff State | JSCC | Jefferson State,4,40,3,1073,Jefferson County,-86.709463,33.651085
John C Calhoun State Community College,6250 U S Highway 31 N,Tanner,AL,35671,2563062500,1,http://www.calhoun.edu,2,1,3,2,2,2,41,1,-2,Calhoun Community College,4,40,4,1083,Limestone County,-86.94908,34.64771
Judson College,302 Bibb St,Marion,AL,36756,3346835100,1,http://www.judson.edu,1,2,5,2,2,2,43,1,-2, ,2,31,1,1105,Perry County,-87.316603,32.629662
Lawson State Community College-Birmingham Campus,3060 Wilson Rd SW,Birmingham,AL,35221-1717,2059252515,1,http://www.lawsonstate.edu,2,1,3,1,2,2,12,1,-2, ,4,40,2,1073,Jefferson County,-86.888372,33.449443
University of West Alabama,Station One,Livingston,AL,35470,2056523400,1,http://www.uwa.edu,1,1,7,2,2,2,43,1,-2, ,2,21,3,1119,Sumter County,-88.18725,32.5843
Lurleen B Wallace Community College,1000 Dannelly Blvd.,Andalusia,AL,36420-1418,3342226591,1,http://www.lbwcc.edu,2,1,3,2,2,2,41,1,-2,LBW Community College |LBWCC |LBW,4,40,2,1039,Covington County,-86.451742,31.321861
Marion Military Institute,1101 Washington St,Marion,AL,36756,8006641842,1,http://www.marionmilitary.edu,2,1,3,2,2,2,43,1,-2, ,4,40,1,1105,Perry County,-87.318077,32.622556
Miles College,5500 Myron Massey Blvd,Fairfield,AL,35064-2621,20592910001645,1,http://www.miles.edu,1,2,5,1,2,2,21,1,-2, ,2,32,2,1073,Jefferson County,-86.90718,33.48072
University of Mobile,5735 College Parkway Drive,Mobile,AL,36613-2842,2516755990,1,http://www.umobile.edu,1,2,7,2,2,2,41,1,-2, ,2,21,2,1097,Mobile County,-88.128739,30.793454
University of Montevallo,Station 6001,Montevallo,AL,35115-6000,2056656155,1,http://www.montevallo.edu,1,1,8,2,2,2,31,1,-2, ,2,21,2,1117,Shelby County,-86.86473,33.10442
Northwest Shoals Community College-Muscle Shoals,800 George Wallace Blvd,Muscle Shoals,AL,35661,2563315200,1,http://www.nwscc.edu,2,1,3,2,2,2,13,1,-2, ,4,40,2,1033,Colbert County,-87.678939,34.730351
University of North Alabama,One Harrison Plaza,Florence,AL,35632-0001,2567654100,1,http://www.una.edu,1,1,8,2,2,2,13,1,-2, ,2,21,3,1077,Lauderdale County,-87.67976,34.8072
Northeast Alabama Community College,138  Highway 35,Rainsville,AL,35986,2056384418234,1,http://www.nacc.edu,2,1,4,2,2,2,42,1,-2,"Northeast, NACC, Northeast Alabama State Junior College, Northeast Alabama State Community College",4,40,2,1049,DeKalb County,-85.849296,34.495048
Oakwood University,7000 Adventist Blvd NW,Huntsville,AL,35896,2567267000,1,http://www.oakwood.edu,1,2,7,1,2,2,12,1,-2, ,2,32,2,1089,Madison County,-86.661596,34.756663
Alabama Southern Community College,2800 South Alabama Avenue,Monroeville,AL,36460,25157531568252,1,http://www.ascc.edu,2,1,3,2,2,2,41,1,-2, ,4,40,2,1099,Monroe County,-87.323941,31.48897
Prince Institute of Professional Studies Inc,7735 Atlanta Hwy,Montgomery,AL,36117,3342711670203,1,http://princeinstitute.edu,2,3,3,2,-2,2,12,1,-2, ,4,40,1,1101,Montgomery County,-86.161564,32.38201
Reid State Technical College,I65 and Hwy 83,Evergreen,AL,36401,2515781313,1,http://www.rstc.cc.al.us,2,1,3,2,2,2,43,1,-2, ,4,40,1,1035,Conecuh County,-86.965527,31.45764
Bishop State Community College,351 North Broad Street,Mobile,AL,36603-5898,2514057000,1,http://www.bishop.edu,2,1,3,1,2,2,12,1,-2, ,4,40,2,1097,Mobile County,-88.056355,30.694054
Samford University,800 Lakeshore Drive,Birmingham,AL,35229-2240,2057262011,1,http://www.samford.edu,1,2,9,2,2,2,21,1,-2, ,2,21,2,1073,Jefferson County,-86.790142,33.463236
Selma University,"1501 Lapsley St, Dinkins Hall",Selma,AL,36701,3348722533,1,http://selmauniversity.org,1,2,7,1,2,2,33,1,-2, ,2,-3,1,1047,Dallas County,-87.031607,32.419785
Shelton State Community College,9500 Old Greensboro Rd,Tuscaloosa,AL,35405-8522,2053912211,1,http://www.sheltonstate.edu,2,1,3,1,2,2,13,1,-2, ,4,40,3,1125,Tuscaloosa County,-87.557337,33.119706
Snead State Community College,220 North Walnut Street,Boaz,AL,35957-0734,2565935120,1,http://www.snead.edu,2,1,3,2,2,2,32,1,-2, ,4,40,2,1095,Marshall County,-86.168184,34.200609
University of South Alabama,307 N University Blvd,Mobile,AL,36688-0002,2514606101,1,http://www.southalabama.edu,1,1,9,2,1,1,12,1,-2, ,2,16,4,1097,Mobile County,-88.174087,30.696578
Spring Hill College,4000 Dauphin St,Mobile,AL,36608-1791,2513804000,1,http://www.shc.edu,1,2,8,2,2,2,12,1,-2,Springhill|Springhill College|SHC|the Hill,2,21,2,1097,Mobile County,-88.148412,30.685751
Southeastern Bible College,2545 Valleydale Road,Birmingham,AL,35224-2083,2059709200,1,http://www.sebc.edu,1,2,5,2,2,2,21,1,-2, ,2,51,1,1117,Shelby County,-86.764053,33.364978
Stillman College,3601 Stillman Boulevard,Tuscaloosa,AL,35403,2053494240,1,http://www.stillman.edu,1,2,5,1,2,2,13,1,-2, ,2,32,2,1125,Tuscaloosa County,-87.582864,33.200716
Talladega College,627 W Battle St,Talladega,AL,35160,2567616100,1,http://www.talladega.edu,1,2,5,1,2,2,32,1,-2, ,2,31,1,1121,Talladega County,-86.112036,33.433069
H Councill Trenholm State Technical College,1225 Air Base Blvd,Montgomery,AL,36108-3199,3344204200,1,http://www.trenholmstate.edu,2,1,3,1,2,2,12,1,-2,Trenholm State,4,40,2,1101,Montgomery County,-86.344604,32.34991
Troy University,University Avenue,Troy,AL,36082-0001,3346703100,1,http://www.troy.edu,1,1,9,2,2,2,33,1,-2,TROY,2,21,5,1109,Pike County,-85.95035,31.7969
Tuskegee University,"Kresge Center, 3rd Floor",Tuskegee,AL,36088-1920,3347278011,1,http://www.tuskegee.edu,1,2,9,1,2,1,32,1,-2, ,2,21,2,1087,Macon County,-85.71794,32.41666
United States Sports Academy,One Academy Dr,Daphne,AL,36526-7055,25162633037144,1,http://www.ussa.edu,1,2,9,2,2,2,32,1,-2,The Academy |America's Sports University,2,59,1,1003,Baldwin County,-87.91202,30.64004
Bevill State Community College,1411 Indiana Avenue,Jasper,AL,35501,2053870511,1,http://www.bscc.edu,2,1,3,2,2,2,32,1,-2, ,4,40,2,1127,Walker County,-87.265034,33.835785
University of Alaska Anchorage,3211 Providence Drive,Anchorage,AK,99508,9077861800,1,http://www.uaa.alaska.edu,1,1,8,2,2,2,11,1,-2,UAA,2,21,4,2020,Anchorage Municipality,-149.826779,61.18824
Alaska Bible College,College Rd,Glennallen,AK,99588,8223201221,3,http://www.akbible.edu/,1,2,5,2,2,2,43,1,-2, ,2,-3,1,2261,Valdez-Cordova Census Area,-145.52624,62.11296
University of Alaska Fairbanks,505 South Chandalar Drive,Fairbanks,AK,99775-7500,9074747211,1,http://www.uaf.edu,1,1,9,2,2,2,23,1,-2, ,2,16,3,2090,Fairbanks North Star Borough,-147.82475,64.857053
University of Alaska Southeast,11120 Glacier Highway,Juneau,AK,99801-8697,8774654827,1,http://www.uas.alaska.edu,1,1,7,2,2,2,33,1,-2, ,2,21,2,2110,Juneau City and Borough,-134.639195,58.381976
Alaska Pacific University,4101 University Dr,Anchorage,AK,99508,9075611266,1,http://www.alaskapacific.edu,1,2,7,2,2,2,11,1,-2, ,2,21,1,2020,Anchorage Municipality,-149.814307,61.189535
AVTEC-Alaska's Institute of Technology,809 Second Avenue,Seward,AK,99664-0889,9072243322,1,http://www.avtec.edu/,3,1,2,2,2,2,43,1,-2,AVTEC,6,-3,1,2122,Kenai Peninsula Borough,-149.443826,60.110502
Charter College-Anchorage,2221 E Northern Lights Blvd Ste 120,Anchorage,AK,99508,9072771000,1,http://www.chartercollege.edu,1,3,5,2,-2,2,11,1,-2, ,3,40,1,2020,Anchorage Municipality,-149.83999,61.195436
Prince William Sound Community College,303 Lowe Street,Valdez,AK,99686-0097,9078341600,1,http://www.pwscc.edu,2,1,3,2,2,2,43,1,-2,PWSCC,4,40,1,2261,Valdez-Cordova Census Area,-146.357096,61.133085
Career Academy,1415 E Tudor Road,Anchorage,AK,99507-1033,9075637575136,1,http://www.careeracademy.edu,3,3,2,2,-2,2,11,1,-2, ,6,-3,1,2020,Anchorage Municipality,-149.855683,61.180849
University of Alaska System of Higher Education,910 Yukon Drive,Fairbanks,AK,99775-5000,9074508000,2,http://www.alaska.edu/,1,1,9,2,2,-2,23,1,-2,UA,-2,-3,-2,2090,Fairbanks North Star Borough,-147.847787,64.858009
Everest College-Phoenix,"10400 N. 25th Avenue, Suite 190",Phoenix,AZ,85021-1641,6029424141,1,http://www.everestcollegephoenix.edu,1,3,5,2,-2,2,11,1,-2,Academy of Business College | |Rhodes College,3,40,3,4013,Maricopa County,-112.113531,33.580955
Collins College,4750 S 44th Place,Phoenix,AZ,85040,4809663000,1,http://www.collinscollege.edu,1,3,5,2,-2,2,11,1,-2, ,2,56,2,4013,Maricopa County,-111.98646,33.40334
Empire Beauty School-Paradise Valley,12827 N Tatum Blvd,Phoenix,AZ,85032,57042943212414,1,http://www.empire.edu,3,3,2,2,-2,2,11,1,-2, ,6,-3,1,4013,Maricopa County,-111.978446,33.602489
Empire Beauty School-Tucson,3030 E Speedway Blvd,Tucson,AZ,85716,57042943212414,1,http://www.empire.edu,3,3,2,2,-2,2,11,1,-2, ,6,-3,1,4019,Pima County,-110.927873,32.235959
Thunderbird School of Global Management,1 Global Place,Glendale,AZ,85306-6000,6029787000,1,http://www.thunderbird.edu,1,2,8,2,2,2,12,1,-2,Thunderbird,1,55,2,4013,Maricopa County,-112.182574,33.622947
American Indian College of the Assemblies of God Inc,10020 N 15th Ave,Phoenix,AZ,85021,6029443335,1,http://www.aicag.edu/,1,2,5,2,2,2,11,1,-2, ,3,51,1,4013,Maricopa County,-112.091236,33.577578
American Institute of Technology,440 S 54th Avenue,Phoenix,AZ,85043-4729,6022332222,1,http://www.ait-schools.com,3,3,1,2,-2,2,41,1,-2, ,6,-3,1,4013,Maricopa County,-112.175284,33.442432
Carrington College-Phoenix,8503 N 27th Ave,Phoenix,AZ,85051-4063,6023935900,1,http://www.carrington.edu,2,3,3,2,-2,2,11,1,-2,Formerly Apollo College-Phoenix Inc,4,-3,1,4013,Maricopa County,-112.116921,33.561821
Carrington College-Mesa,630 West Southern Avenue,Mesa,AZ,85210,4802121600,1,,2,3,4,2,-2,2,11,1,-2, ,4,-3,2,4013,Maricopa County,-111.845197,33.393316
Carrington College-Tucson,3550 N Oracle Rd.,Tucson,AZ,85705-5885,5208885885,1,http://www.carrington.edu,2,3,3,2,-2,2,11,1,-2, ,4,-3,1,4019,Pima County,-110.978011,32.270954
College America-Flagstaff,3012 East Route 66,Flagstaff,AZ,86004,92821360601400,1,http://www.collegeamerica.edu,1,3,5,2,-2,2,13,1,-2, ,3,-3,1,4005,Coconino County,-111.606672,35.209765
Arizona Academy of Beauty-East,5631 E Speedway Blvd,Tucson,AZ,85712,5208854120,1,http://www.arizonaacademy.com,3,3,2,2,-2,2,11,1,-2, ,6,-3,1,4019,Pima County,-110.871281,32.236258
Arizona Automotive Institute,6829 N 46th Ave,Glendale,AZ,85301-3579,6239347273,1,http://www.aai.edu,2,3,4,2,-2,2,12,1,-2,Arizona Automotive Institute,6,40,2,4013,Maricopa County,-112.15781,33.536413
Brookline College-Phoenix,2445 W. Dunlap Ave.,Phoenix,AZ,85021,6022426265,1,http://www.brooklinecollege.edu,1,3,5,2,-2,2,11,1,-2, ,3,40,2,4013,Maricopa County,-112.112382,33.56756
Arizona State University, ,Tempe,AZ,85287,4809659011,1,http://www.asu.edu/,1,1,9,2,2,2,12,1,-2,ASU,2,15,5,4013,Maricopa County,-111.932128,33.417515
Arizona Western College,2020 S. Avenue 8E,Yuma,AZ,85365-8834,9283176000,1,http://www.azwestern.edu,2,1,3,2,2,2,31,1,-2,"AWC, A.W.C., AZ Western, AZ Western College, Arizona Western, Yuma/LaPaz Community College District",4,40,3,4027,Yuma County,-114.49618,32.69022
University of Arizona,1401 E University,Tucson,AZ,85721-0066,5206212211,1,http://www.arizona.edu,1,1,9,2,2,1,11,1,-2,"UA|U of A|Arizona|UofA|The University of Arizona|University of Arizona|University of Az|AZ|Univ. of Arizona|Univ. of Az|Tucson|Tucson, AZ|the university of Arizona|the Univ. of Az|the U of AZ|the U of Az|Ariz.|Arizona University|Az+university|85721|AZ+univ|AZ university|",2,15,5,4019,Pima County,-110.950875,32.232112
The Art Center Design College-Tucson,2525 N Country Club Rd,Tucson,AZ,85716,5203250123,1,http://www.theartcenter.edu,1,3,5,2,-2,2,11,1,-2, ,2,40,1,4019,Pima County,-110.926828,32.252507
Brillare Hairdressing Academy,7201 E. Camelback #100,Scottsdale,AZ,85251,4809944222,1,http://www.attheacademy.com/,3,3,2,2,-2,2,12,1,-2, ,6,-3,1,4013,Maricopa County,-111.925323,33.50225
Central Arizona College,8470 N Overfield Rd,Coolidge,AZ,85128-9030,5204945444,1,http://www.centralaz.edu,2,1,3,2,2,2,42,1,-2,Pinal County Community College,4,40,3,4021,Pinal County,-111.652297,32.95582
Brown Mackie College-Tucson,4585 E Speedway Blvd.,Tucson,AZ,85712,5203193300,1,http://www.brownmackie.edu,1,3,5,2,-2,2,11,1,-2, ,3,55,1,4019,Pima County,-110.895053,32.236286
Charles of Italy Beauty College,"1987 McCulloch Blvd, Suite 205",Lake Havasu City,AZ,86403,9284536666,1,http://www.charlesofitaly.edu,3,3,2,2,-2,2,33,1,-2, ,6,-3,1,4015,Mohave County,-114.328115,34.475229
Cochise College,4190 W Highway 80,Douglas,AZ,85607-9724,5205150500,1,http://www.cochise.edu,2,1,3,2,2,2,42,1,-2, ,4,40,3,4003,Cochise County,-109.668765,31.361359
Empire Beauty School-Flagstaff,1790 E Rte 66,Flagstaff,AZ,86004,57042943212414,1,http://www.empire.edu,3,3,2,2,-2,2,13,1,-2, ,6,-3,1,4005,Coconino County,-111.626367,35.195723
Empire Beauty School-Chandler,2978 N Alma School Rd  Stes 1-3,Chandler,AZ,85224,57042943212414,1,http://www.empire.edu,3,3,2,2,-2,2,21,1,-2, ,6,-3,1,4013,Maricopa County,-111.859237,33.349019
Cortiva Institute-Tucson,"6390 E. Broadway, Suite 100",Tucson,AZ,85710,5204075160,1,http://www.cortiva.com/,3,3,2,2,-2,2,11,1,-2, ,6,-3,1,4019,Pima County,-110.856548,32.220975
DeVry University-Arizona,2149 W Dunlap Ave,Phoenix,AZ,85021-2995,6028709222,1,http://www.devry.edu,1,3,7,2,-2,2,11,1,-2,DeVry University-Mesa |DeVry University-Phoenix |DeVry University-Northeast Phoenix |DeVry University-Glendale,2,54,2,4013,Maricopa County,-112.104979,33.567573
Avalon School of Cosmetology,2111 S Alma School Rd Ste 21,Mesa,AZ,85210,4808971688,1,http://www.theavalonschool.com,3,3,2,2,-2,2,11,1,-2, ,6,-3,1,4013,Maricopa County,-111.859667,33.376506
Eastern Arizona College,615 N. Stadium Ave.,Thatcher,AZ,85552-0769,9284288322,1,http://www.eac.edu,2,1,3,2,2,2,33,1,-2, ,4,40,3,4009,Graham County,-109.763017,32.84242
Embry Riddle Aeronautical University-Prescott,3700 Willow Creek Road,Prescott,AZ,86301-3720,9287773728,1,http://www.erau.edu,1,2,7,2,-2,2,13,1,-2, ,2,-3,2,4025,Yavapai County,-112.445315,34.615181
Frank Lloyd Wright School of Architecture,Taliesin West,Scottsdale,AZ,85261,4808602700,1,http://www.taliesin.edu,1,2,7,2,2,2,12,1,-2, ,2,-3,1,4013,Maricopa County,-111.846477,33.60715
Glendale Community College,6000 W Olive Ave,Glendale,AZ,85302,6238453000,1,http://www.gc.maricopa.edu,2,1,3,2,2,2,12,1,-2, ,4,40,5,4013,Maricopa County,-112.188466,33.567524
Grand Canyon University,3300 W Camelback Rd,Phoenix,AZ,85017,8008009776,1,http://www.gcu.edu,1,3,9,2,-2,2,11,1,-2, ,2,21,5,4013,Maricopa County,-112.129876,33.509446
Anthem College-Phoenix,1515 E Indian School Road,Phoenix,AZ,85014,6022799700,1,http://www.anthem.edu,1,3,5,2,-2,2,11,1,-2,High-Tech Institute,3,40,2,4013,Maricopa County,-112.050333,33.4947
International Academy of Hair Design,3350 N Arizona Ave  Ste 4,Chandler,AZ,85225-7198,4808209422,1,http://www.intlacademy.biz,3,3,2,2,-2,2,21,1,-2, ,6,-3,1,4013,Maricopa County,-111.841802,33.354361
Lamson College,875 W. Elliot Road Suite 206,Tempe,AZ,85284,4808987000,1,http://www.lamsoncollege.edu,2,3,3,2,-2,2,12,1,-2, ,4,40,1,4013,Maricopa County,-111.95313,33.349029
Kaplan College-Phoenix,"13610 N Black Canyon Hwy,  Ste 104",Phoenix,AZ,85029,6025481955,1,http://www.kc-phoenix.com,2,3,4,2,-2,2,11,1,-2, ,4,40,1,4013,Maricopa County,-112.117258,33.609028
Maricopa Beauty College LLC,515 W Western Ave,Avondale,AZ,85323,6239324414,1,http://www.maricopabeautycollege.com,3,3,2,2,-2,2,23,1,-2, ,6,-3,1,4013,Maricopa County,-112.355232,33.435281
Maricopa Community College System Office,2411 W 14th St,Tempe,AZ,85281-6942,4807318000,2,http://www.dist.maricopa.edu,2,1,4,2,2,-2,41,1,-2, ,-2,-3,-2,4013,Maricopa County,-111.97543,33.413592
GateWay Community College,108 N. 40th Street,Phoenix,AZ,85034,6023925000,1,http://www.gwc.maricopa.edu,2,1,4,2,2,2,11,1,-2, ,4,40,3,4013,Maricopa County,-111.995403,33.449261
Mesa Community College,1833 W Southern Ave,Mesa,AZ,85202,4804617000,1,http://www.mesacc.edu,2,1,3,2,2,2,11,1,-2, ,4,40,5,4013,Maricopa County,-111.871413,33.392945
ITT Technical Institute-Tucson,1455 W. River Rd,Tucson,AZ,85704-5829,5204087488,1,http://www.itt-tech.edu,1,3,5,2,-2,2,21,1,-2, ,3,40,1,4019,Pima County,-110.997501,32.297261
ITT Technical Institute-Tempe,5005 S. Wendler Drive,Tempe,AZ,85282,6024377500,1,http://www.itt-tech.edu,1,3,5,2,-2,2,12,1,-2, ,3,54,1,4013,Maricopa County,-111.969736,33.380254
Mohave Community College,1971 Jagerson Ave,Kingman,AZ,86409-1238,9287574331,1,http://www.mohave.edu,2,1,3,2,2,2,41,1,-2, ,4,40,3,4015,Mohave County,-114.022914,35.268508
Universal Technical Institute-Motorcycle Mechanics Institute Division,2844 W Deer Valley Rd,Phoenix,AZ,85027,6238699644,1,http://uti.edu/,2,3,4,2,-2,2,11,1,-2,Universal Technical Institute |Motorcycle Mechanics Institute |MMI-Phoenix |MMI-AZ,6,-3,2,4013,Maricopa County,-112.121476,33.683844
Dine College, ,Tsaile,AZ,86556,9287246600,1,http://www.dinecollege.edu,1,1,5,2,2,2,43,1,-2, ,3,60,2,4001,Apache County,-109.21009,36.301684
Northern Arizona University,"Knoles Drive, Babbitt Administrative Center",Flagstaff,AZ,86011-4132,9285239011,1,http://home.nau.edu/,1,1,9,2,2,2,13,1,-2,NAU,2,16,5,4005,Coconino County,-111.65582,35.19398
Northland Pioneer College,2251 E. Navajo Blvd.,Holbrook,AZ,86025-0610,9285247600,1,http://www.npc.edu,2,1,3,2,2,2,41,1,-2,NPC,4,40,2,4017,Navajo County,-110.132719,34.936766
Ottawa University-Phoenix,10020 North 25th Avenue,Phoenix,AZ,85021,6023711188,1,http://www.ottawa.edu,1,2,8,2,-2,2,11,1,-2,OU - Phoenix |OU - Arizona |OUAZ,2,-3,2,4013,Maricopa County,-112.113493,33.577812
Phoenix College,1202 W Thomas Rd,Phoenix,AZ,85013,6022642492,1,http://www.pc.maricopa.edu,2,1,3,2,2,2,11,1,-2, ,4,40,4,4013,Maricopa County,-112.088334,33.480476
Cortiva Institute-Scottsdale,8010 East McDowell Road #214,Scottsdale,AZ,85257,4809459461,1,http://cortiva.com,3,3,1,2,-2,2,12,1,-2,Cortiva Institute (Phoenix) LLC,6,-3,1,4013,Maricopa County,-111.908192,33.46588
University of Phoenix-Phoenix-Hohokam Campus,4635 E Elwood St,Phoenix,AZ,85040-1958,4805572000,1,http://www.phoenix.edu,1,3,8,2,-2,2,41,1,-2, ,2,55,3,4013,Maricopa County,-111.979941,33.413016
Pima Community College,401 North Bonita Avenue,Tucson,AZ,85709-5000,5202064500,1,http://www.pima.edu,2,1,3,2,2,2,11,1,-2,Pima County Community College District,4,40,5,4019,Pima County,-110.985014,32.226881
Pima Medical Institute-Tucson,"3350 East Grant Road, Suite 200",Tucson,AZ,85716,5203261600,1,http://www.pmi.edu/locations/tucson.asp,1,3,5,2,-2,2,11,1,-2, ,3,-3,2,4019,Pima County,-110.921331,32.250463
Pima Medical Institute-Albuquerque,4400 Cutler Avenue NE,Albuquerque,NM,87110,5058811234,1,http://www.pmi.edu,2,3,4,2,-2,2,11,1,-2, ,4,-3,2,35001,Bernalillo County,-106.59439,35.105571
Prescott College,220 Grove Ave,Prescott,AZ,86301,8773502100,1,http://www.prescott.edu,1,2,9,2,2,2,13,1,-2,Prescot College | Prescott University | Prescot University | Prescott | PC | Prescott Center for Alternative Education,2,22,2,4025,Yavapai County,-112.47627,34.544783
Refrigeration School Inc,4210 E Washington Street,Phoenix,AZ,85034-1816,6022757133,1,http://refrigerationschool.com,2,3,3,2,-2,2,41,1,-2,The Refrigeration School,4,40,1,4013,Maricopa County,-111.989439,33.448254
Rio Salado College,2323 W 14th St,Tempe,AZ,85281,4805178000,1,http://www.rio.maricopa.edu,2,1,3,2,2,2,41,1,-2, ,4,40,5,4013,Maricopa County,-111.974354,33.413592
Roberto-Venn School of Luthiery,4011 S 16th St,Phoenix,AZ,85040,6022431179,1,http://www.roberto-venn.com,3,3,1,2,-2,2,11,1,-2, ,6,-3,1,4013,Maricopa County,-112.047076,33.410024
Hair Academy of Safford,1550 West Thatcher Blvd,Safford,AZ,85546,9284280331,1,,3,3,2,2,-2,2,41,1,-2, ,6,-3,1,4009,Graham County,-109.727248,32.834978
Scottsdale Community College,9000 E Chaparral Rd,Scottsdale,AZ,85256,4804236000,1,http://www.sc.maricopa.edu,2,1,3,2,2,2,41,1,-2, ,4,40,4,4013,Maricopa County,-111.887308,33.509531
South Mountain Community College,7050 S 24th St,Phoenix,AZ,85042,6022438135,1,http://www.southmountaincc.edu,2,1,3,2,2,2,11,1,-2, ,4,40,3,4013,Maricopa County,-112.030256,33.382544
Arizona Christian University,2625 E Cactus Rd,Phoenix,AZ,85032-7097,6024895300,1,http://www.swcaz.edu,1,2,5,2,2,2,11,1,-2, ,2,51,1,4013,Maricopa County,-112.026037,33.596721
Tucson College,"5151 E Broadway Blvd, Ste.155",Tucson,AZ,85711,5202580400,1,http://www.tucsoncollege.edu,3,3,1,2,-2,2,11,1,-2,Southwest Business College,6,-3,1,4019,Pima County,-110.883209,32.22176
Universal Technical Institute of Arizona Inc,10695 West Pierce Street,Avondale,AZ,85323,6232454600,1,http://uti.edu/,2,3,3,2,-2,2,41,1,-2,Universal Technical Institute |UTI-AZ |UTI-Avondale,4,40,2,4013,Maricopa County,-112.289712,33.453494
Western International University,9215 N Black Canyon Hwy.,Phoenix,AZ,85021,6029432311,1,http://www.west.edu,1,3,7,2,-2,2,11,1,-2,WIU,2,21,2,4013,Maricopa County,-112.116846,33.570542
Empire Beauty School-NW Phoenix,2727 W. Glendale Ave. #200,Glendale,AZ,85051,57042943212414,1,http://www.empire.edu,3,3,2,2,-2,2,11,1,-2, ,6,-3,1,4013,Maricopa County,-112.118476,33.538563
Yavapai College,1100 E Sheldon St,Prescott,AZ,86301,9284457300,1,http://www.YC.EDU,2,1,3,2,2,2,13,1,-2, ,4,40,3,4025,Yavapai County,-112.457119,34.545361
University of Arkansas at Little Rock,2801 S University Ave,Little Rock,AR,72204,5015693000,1,http://www.ualr.edu,1,1,9,2,2,2,12,1,-2,UALR|University of Arkansas-Little Rock|Arkansas Little Rock|,2,16,4,5119,Pulaski County,-92.341778,34.72685
University of Arkansas for Medical Sciences,4301 W Markham,Little Rock,AR,72205-7199,5012961275,1,http://www.uams.edu,1,1,9,2,1,1,12,1,-2,UAMS,2,52,2,5119,Pulaski County,-92.320992,34.75153
ABC Beauty College Inc,2708 W Pine,Arkadelphia,AR,71923,8702466726,1,http://www.arkadelphiabeautycollege.com,3,3,2,2,-2,2,32,1,-2, ,6,-3,1,5019,Clark County,-93.08187,34.12268
Arkansas Baptist College,1621 Dr. Martin Luther King Drive,Little Rock,AR,72202-6099,5013704000,1,http://www.arkansasbaptist.edu,1,2,5,1,2,2,12,1,-2, ,2,31,2,5119,Pulaski County,-92.289393,34.735262
Arkansas Beauty School,5108 Baseline Rd,Little Rock,AR,72209,5015625673,1,,3,3,2,2,-2,2,12,1,-2, ,6,-3,1,5119,Pulaski County,-92.334962,34.668785
Arkansas Beauty College,109 N Commerce St,Russellville,AR,72801,4799683075,1,,3,3,2,2,-2,2,33,1,-2, ,6,-3,1,5115,Pope County,-93.135284,35.278587
Lyon College,2300 Highland Road,Batesville,AR,72501,8703077000,1,http://www.lyon.edu,1,2,5,2,2,2,33,1,-2, ,2,31,1,5063,Independence County,-91.628158,35.77897
Arkansas College of Barbering and Hair Design,200 E Washington Ave,North Little Rock,AR,72114,5013769696,1,,3,3,2,2,-2,2,13,1,-2, ,6,-3,1,5119,Pulaski County,-92.266583,34.754023
Arthur's Beauty College Inc-Fort Smith,2000 North B St,Fort Smith,AR,72901-3342,4797836245,1,http://www.arthursbeautycollege.com,3,3,2,2,-2,2,13,1,-2,Stand Alone Campus,6,-3,1,5131,Sebastian County,-94.410982,35.380232
University of Arkansas,Administration Bldg 425,Fayetteville,AR,72701,4795752000,1,http://www.uark.edu,1,1,9,2,2,2,13,1,-2,University of Arkansas|Arkansas,2,15,5,5143,Washington County,-94.17569,36.0671
University of Arkansas at Pine Bluff,1200 N University Mail Slot 4789,Pine Bluff,AR,71601,8705758000,1,http://www.uapb.edu,1,1,7,1,2,2,13,1,-2, ,2,32,2,5069,Jefferson County,-92.019062,34.242231
Arkansas State University-Beebe,1000 Iowa Street,Beebe,AR,72012-1000,5018823600,1,http://www.asub.edu,2,1,3,2,2,2,31,1,-2,ASU-BEEBE,4,40,2,5145,White County,-91.894579,35.070224
Arkansas State University-Main Campus,2105 E. Aggie Road,Jonesboro,AR,72401,8709722100,1,http://www2.astate.edu,1,1,9,2,2,2,13,1,-2,Arkansas State University-Jonesboro,2,21,4,5031,Craighead County,-90.680478,35.842779
Arkansas Tech University,Administration Bldg 200; 1509 N Boulder Ave,Russellville,AR,72801-2222,4799680389,1,http://www.atu.edu,1,1,8,2,2,2,33,1,-2,ATU|Tech|Arkansas Tech,2,21,3,5115,Pope County,-93.134649,35.293505
University of Arkansas at Monticello,Highway 425 South,Monticello,AR,71656,8703676811,1,http://www.uamont.edu,1,1,7,2,2,2,33,1,-2,UAM,3,32,2,5043,Drew County,-91.80068,33.59223
Arthur's Beauty College Inc,2600 John Harden Dr,Jacksonville,AR,72076,5019828987,1,http://arthursbeautycollege.com,3,3,2,2,-2,2,21,1,-2,Mother Campus,6,-3,1,5119,Pulaski County,-92.103665,34.891119
Baptist Health Schools-Little Rock,11900 Col Glenn Rd Ste 1000,Little Rock,AR,72210-2820,5012026200,1,http://www.bhslr.edu,2,2,4,2,2,2,12,1,-2, ,6,-3,1,5119,Pulaski County,-92.40547,34.712269
Bee Jays Academy,1907 Hinson Loop,Little Rock,AR,72212,5012242442,1,http://bjacademy.net,3,3,2,2,-2,2,12,1,-2, ,6,-3,1,5119,Pulaski County,-92.405875,34.769604
Black River Technical College,1410 Hwy 304 East,Pocahontas,AR,72455,8702484000,1,http://www.blackrivertech.edu,2,1,3,2,2,2,42,1,-2, ,4,40,2,5121,Randolph County,-90.913157,36.237882
University of Central Arkansas,201 Donaghey Ave,Conway,AR,72035-0001,5014505000,1,http://www.uca.edu,1,1,9,2,2,2,32,1,-2, ,2,21,4,5045,Faulkner County,-92.454235,35.079315
Central Baptist College,1501 College Avenue,Conway,AR,72034,5013296872,1,http://www.cbc.edu,1,2,5,2,2,2,41,1,-2,CBC,2,51,1,5045,Faulkner County,-92.509599,35.089094
Cossatot Community College of the University of Arkansas,183 College Drive,De Queen,AR,71832,8705844471,1,http://cccua.edu,2,1,3,2,2,2,41,1,-2, ,4,40,2,5133,Sevier County,-94.366883,34.044332
Crowley's Ridge College,100 College Dr,Paragould,AR,72450,8702366901,1,http://www.crc.edu/,1,2,5,2,2,2,41,1,-2, ,3,40,1,5055,Greene County,-90.58468,36.066294
Crowleys Ridge Technical Institute,1620 Newcastle Road,Forrest City,AR,72335-0925,8706335411,1,http://www.crti.tec.ar.us,3,1,2,2,2,2,41,1,-2,CRTI,6,-3,1,5123,St. Francis County,-90.77586,35.02685
De Luxe Beauty School,1609 West 26th Street,Pine Bluff,AR,71603-1666,8705347609,5,,3,3,2,2,-2,-1,13,1,-2, ,6,-3,-1,5069,Jefferson County,-92.018492,34.203384
East Arkansas Community College,1700 Newcastle Rd,Forrest City,AR,72335,8706334480208,1,http://WWW.EACC.EDU,2,1,3,2,2,2,41,1,-2, ,4,40,2,5123,St. Francis County,-90.775976,35.028127
Eastern College of Health Vocations-Little Rock,200 South University Avenue,Little Rock,AR,72205,5015680211,1,http://www.echv.com,3,3,1,2,-2,2,12,1,-2, ,6,-3,1,5119,Pulaski County,-92.341312,34.751221
Imagine-Paul Mitchell Partner School,4201 E McCain Blvd,North Little Rock,AR,72117,5018011833,1,http://www.pmlittlerock.com,3,3,2,2,-2,2,13,1,-2, ,6,-3,1,5119,Pulaski County,-92.22215,34.789458
National Park Community College,101 College Dr,Hot Springs,AR,71913,5017604222,1,http://www.npcc.edu,2,1,3,2,2,2,41,1,-2, ,4,40,2,5051,Garland County,-93.119307,34.513294
University of Arkansas Community College-Batesville,2005 White Drive,Batesville,AR,72503-3350,8706122000,1,http://www.uaccb.edu,2,1,3,2,2,2,41,1,-2,UACCB,4,40,2,5063,Independence County,-91.602593,35.791214
Harding University,915 E. Market Ave.,Searcy,AR,72143,5012794000,1,http://www.harding.edu,1,2,9,2,2,2,32,1,-2, ,2,22,3,5145,White County,-91.728772,35.249646
Henderson State University,1100 Henderson Street,Arkadelphia,AR,71999-0001,8702305000,1,http://www.hsu.edu,1,1,8,2,2,2,32,1,-2, ,2,21,2,5019,Clark County,-93.059794,34.125583
Hendrix College,1600 Washington Ave,Conway,AR,72032-3080,5013296811,1,http://www.hendrix.edu,1,2,7,2,2,2,32,1,-2, ,2,31,2,5045,Faulkner County,-92.444187,35.100058
Hot Springs Beauty College,100 Cones Rd,Hot Springs,AR,71901,5016244258,1,,3,3,2,2,-2,2,13,1,-2, ,6,-3,1,5051,Garland County,-93.038379,34.496247
Jefferson Regional Medical Center School of Nursing,1600 West 40th St,Pine Bluff,AR,71603,8705417850,1,http://www.jrmc.org,2,2,4,2,2,2,13,1,-2, ,6,-3,1,5069,Jefferson County,-92.018188,34.189017
John Brown University,2000 W University St,Siloam Springs,AR,72761,4795249500,1,http://www.jbu.edu,1,2,7,2,2,2,32,1,-2, ,2,32,2,5007,Benton County,-94.557506,36.187187
Lees School of Cosmetology,2700 W. Pershing Blvd,North  Little Rock,AR,72114-3800,5017582800,1,http://LSCTraining.com,3,3,2,2,-2,2,13,1,-2, ,6,-3,1,5119,Pulaski County,-92.296459,34.782806
Career Academy of Hair Design,346 E. Robinson Ave,Springdale,AR,72764-7128,4797566060,1,http://www.cahdspringdale.com,3,3,2,2,-2,2,13,1,-2,Leon's Inc. DBA Career Academy of Hair Design,6,-3,1,5143,Washington County,-94.132458,36.167258
Marsha Kay Beauty College,408 Hwy 201 N,Mountain Home,AR,72653-3164,8704257575,1,http://marshakaybeautycollege.com,3,3,2,2,-2,2,33,1,-2, ,6,-3,1,5005,Baxter County,-92.386184,36.344709
Academy of Salon and Spa,311 S 16th St,Fort Smith,AR,72901,4797825059,1,http://www.mellies.org,3,3,2,2,-2,2,13,1,-2,The Salon & Spa Academy at Mellie's,6,-3,1,5131,Sebastian County,-94.416278,35.380998
Mid-South Community College,2000 W.  Broadway,West Memphis,AR,72301-3829,8707336722,1,http://www.midsouthcc.edu,2,1,3,2,2,2,21,1,-2,MSCC,4,40,2,5035,Crittenden County,-90.22127,35.14662
Arkansas Northeastern College,2501 S Division,Blytheville,AR,72316-1109,87076210201114,1,http://www.anc.edu,2,1,3,2,2,2,33,1,-2, ,4,40,2,5093,Mississippi County,-89.918761,35.90313
Margarets Hair Academy Inc,305 East Gaines Street,Monticello,AR,71655,8703675533,1,,3,3,2,2,-2,2,33,1,-2, ,6,-3,1,5043,Drew County,-91.788227,33.628754
New Tyler Barber College Inc,1221 E 7th St,North Little Rock,AR,72114-4973,5013750377,1,,3,3,2,2,-2,2,13,1,-2, ,6,-3,1,5119,Pulaski County,-92.253611,34.759745
North Arkansas College,1515 Pioneer Dr,Harrison,AR,72601-5508,8707433000,1,http://www.northark.edu,2,1,3,2,2,2,33,1,-2,Northark,4,40,2,5009,Boone County,-93.090825,36.221638
Northwest Technical Institute,709 S Old Missouri Rd,Springdale,AR,72764,47975188240,1,http://www.nwti.edu,3,1,2,2,2,2,13,1,-2,NTI |Northwest Vo-Tech |Northwest Vocational-Technical School,6,-3,1,5143,Washington County,-94.116394,36.178477
Ouachita Baptist University,410 Ouachita St,Arkadelphia,AR,71998-0001,8702455000,1,http://www.obu.edu,1,2,5,2,2,2,32,1,-2,OBU,2,32,2,5019,Clark County,-93.05137,34.124607
Ouachita Technical College,One College Cir,Malvern,AR,72104-0816,50133750001100,1,http://www.otcweb.edu,2,1,3,2,2,2,32,1,-2, ,4,40,2,5059,Hot Spring County,-92.81295,34.36231
Ozarka College,218 College Dr,Melbourne,AR,72556-0010,8703687371,1,http://www.ozarka.edu,2,1,3,2,2,2,43,1,-2, ,4,40,2,5065,Izard County,-91.89651,36.051677
University of the Ozarks,415 N College Ave,Clarksville,AR,72830,4799791000,1,http://www.ozarks.edu,1,2,5,2,2,2,33,1,-2, ,2,32,1,5071,Johnson County,-93.466236,35.475014
University of Arkansas Community College-Morrilton,1537 University Blvd.,Morrilton,AR,72110,5019772000,1,http://www.uaccm.edu,2,1,3,2,2,2,32,1,-2,Petit Jean Technical College |Petit Jean College,4,40,2,5029,Conway County,-92.728703,35.170759
Philander Smith College,900 W. Daisy Bates Drive,Little Rock,AR,72202-3799,5013759845,1,http://www.philander.edu,1,2,5,1,2,2,12,1,-2,PSC,2,32,1,5119,Pulaski County,-92.28242,34.73666
Phillips Community College of the University of Arkansas,1000 Campus Drive,Helena,AR,72342-0785,8703386474,1,http://www.pccua.edu,2,1,3,2,2,2,33,1,-2,Phillips County Community College |PCCUA,4,40,2,5107,Phillips County,-90.6184,34.5458
Southeast Arkansas College,1900 Hazel St.,Pine Bluff,AR,71603,8705435900,1,http://www.seark.edu,2,1,3,2,2,2,13,1,-2,SEARK College,4,40,2,5069,Jefferson County,-92.024776,34.209797
Professional Cosmetology Education Center,460 North Washington,El Dorado,AR,71730-4009,8708649292,1,http://www.professionalcosmetologyeducation.com/,3,3,2,2,-2,2,33,1,-2, ,6,-3,1,5139,Union County,-92.663857,33.215807
Pulaski Technical College,3000 W Scenic Dr,North Little Rock,AR,72118-3347,5018122200,1,http://www.pulaskitech.edu,2,1,4,2,2,2,13,1,-2, ,4,40,4,5119,Pulaski County,-92.298867,34.785194
University of Arkansas Community College-Hope,2500 S Main,Hope,AR,71802-0140,8707775722,1,http://www.uacch.edu,2,1,3,2,2,2,32,1,-2,UACCH,4,40,2,5057,Hempstead County,-93.58713,33.64641
Rich Mountain Community College,1100 College Dr,Mena,AR,71953,4793947622,1,http://www.rmcc.edu,2,1,3,2,2,2,41,1,-2, ,4,40,2,5113,Polk County,-94.218089,34.590187
Paul Mitchell the School-Arkansas,2167 W Martiin Luther King Jr Blvd,Fayetteville,AR,72701,4794425181,1,http://www.pmtsarkansas.com,3,3,2,2,-2,2,13,1,-2, ,6,-3,1,5143,Washington County,-94.190732,36.054959
Searcy Beauty College Inc,1004 S Main,Searcy,AR,72143,5012686300,1,http://searcybeautycollege.net,3,3,2,2,-2,2,32,1,-2, ,6,-3,1,5145,White County,-91.734519,35.23777
Williams Baptist College,60 W Fulbright Avenue,Walnut Ridge,AR,72476,8708866741,1,http://www.wbcoll.edu,1,2,5,2,2,2,42,1,-2, ,2,32,1,5075,Lawrence County,-90.932278,36.125156
South Arkansas Community College,300 S West Ave,El Dorado,AR,71731-7010,8708628131,1,http://www.southark.edu,2,1,3,2,2,2,33,1,-2,SouthArk,4,40,2,5139,Union County,-92.665579,33.210435
Southern Arkansas University Main Campus,100 E. University,Magnolia,AR,71753,8702354000,1,http://WWW.SAUMAG.EDU,1,1,7,2,2,2,33,1,-2, ,2,21,2,5027,Columbia County,-93.2353,33.288656
Southern Arkansas University Tech,100 Carr Road,Camden,AR,71701-1906,8705744500,1,http://www.sautech.edu,2,1,3,2,2,2,33,1,-2,SAU Tech | SAUT,4,40,2,5103,Ouachita County,-92.82958,33.58698
University of Arkansas System Office,2404 N University,Little Rock,AR,72207-3608,5016862500,2,http://WWW.UASYS.EDU,1,1,9,2,2,-2,12,1,-2, ,-2,-3,-2,5119,Pulaski County,-92.34052,34.774112
Velvatex College of Beauty Culture,1520 Martin Luther King Dr,Little Rock,AR,72202-5452,5013729678,1,http://www.velvatexcollege.com,3,3,2,2,-2,2,12,1,-2, ,6,-3,1,5119,Pulaski County,-92.289685,34.730722
University of Arkansas-Fort Smith,5210 Grand Ave,Fort Smith,AR,72913-3649,4797887000,1,http://www.uafortsmith.edu,1,1,5,2,2,2,13,1,-2,UA Fort Smith; UAFS,3,40,3,5131,Sebastian County,-94.374213,35.385306
Abram Friedman Occupational Center,1646 S. Olive Street,Los Angeles,CA,90015-3507,2137652400,1,http://afoc.adultinstruction.org,3,1,2,2,2,2,11,1,-2, ,6,-3,4,6037,Los Angeles County,-118.266121,34.034208
Academy of Art University,79 New Montgomery,San Francisco,CA,94105,4152742200,1,http://www.academyart.edu,1,3,7,2,-2,2,11,1,-2, ,2,56,4,6075,San Francisco County,-122.400721,37.787685
ITT Technical Institute-Rancho Cordova,10863 Gold Center Dr,Rancho Cordova,CA,95670-6034,9168513900,1,http://www.itt-tech.edu,1,3,5,2,-2,2,41,1,-2, ,3,40,1,6067,Sacramento County,-121.281629,38.591135
Academy of Chinese Culture and Health Sciences,1601 Clay St,Oakland,CA,94612,51076377870,1,http://www.acchs.edu,1,2,7,2,2,2,11,1,-2, ,1,53,1,6001,Alameda County,-122.272799,37.80664
The Academy of Radio and TV Broadcasting,16052 Beach Blvd St 263n,Huntington Beach,CA,92647,7148420100,1,http://WWW.ARBRADIO.COM,3,3,2,2,-2,2,21,1,-2, ,6,-3,1,6059,Orange County,-117.990398,33.7689
Alameda Beauty College,2318 Central Ave,Alameda,CA,94501,5105231050,1,http://alamedabeautycollege.edu,3,3,2,2,-2,2,21,1,-2, ,6,-3,1,6001,Alameda County,-122.243386,37.764443
College of Alameda,555 Ralph Appezzato Memorial Parkway,Alameda,CA,94501,5107482334,1,http://www.peralta.edu,2,1,3,2,2,2,21,1,-2, ,4,40,3,6001,Alameda County,-122.280528,37.779884
Allan Hancock College,800 South College Drive,Santa Maria,CA,93454-6399,8059226966,1,http://www.hancockcollege.edu/,2,1,4,2,2,2,13,1,-2, ,4,40,4,6083,Santa Barbara County,-120.424824,34.943821
American Academy of Dramatic Arts-Los Angeles,1336 N La Brea,Los Angeles,CA,90028,3234642777109,5,http://WWW.AADA.ORG,2,2,4,2,2,2,11,1,-2, ,4,40,1,6037,Los Angeles County,-118.344097,34.095315
American Baptist Seminary of the West,2606 Dwight Way,Berkeley,CA,94704-3029,5108411905,1,http://www.absw.edu,1,2,9,2,2,2,12,1,-2,ABSW,1,51,1,6001,Alameda County,-122.256007,37.865388
American Film Institute Conservatory,2021 N Western Ave,Los Angeles,CA,90027-1625,3238567600,1,http://www.AFI.com,1,2,7,2,2,2,11,1,-2,American Film Institute |AFI Conservatory |AFI,1,56,1,6037,Los Angeles County,-118.309348,34.107558
American Beauty College,646 S. Sunset Ave,West Covina,CA,91790,6264727402,1,,3,3,2,2,-2,2,21,1,-2, ,6,-3,1,6037,Los Angeles County,-117.937209,34.069634
American InterContinental University,12655 West Jefferson Blvd,Los Angeles,CA,90066,3103022000,1,http://www.la.aiuniv.edu,1,3,5,2,-2,2,11,1,12/2010,AIU LA,2,56,1,6037,Los Angeles County,-118.415776,33.978529
American Career College-Los Angeles,4021 Rosewood Avenue,Los Angeles,CA,90004,3236687555,1,http://www.americancareer.com,2,3,3,2,-2,2,11,1,-2, ,4,-3,2,6037,Los Angeles County,-118.29239,34.079012
American Conservatory Theater,30 Grant Ave,San Francisco,CA,94108-5834,4158343200,1,http://www.act-sf.org,1,2,7,2,2,2,11,1,-2, ,1,56,1,6075,San Francisco County,-122.40499,37.787462
American River College,4700 College Oak Dr,Sacramento,CA,95841-4286,9164848011,1,http://www.arc.losrios.edu/,2,1,4,2,2,2,21,1,-2,American River | ARC,4,40,5,6067,Sacramento County,-121.350404,38.649035
Everest College-Hayward,22336 Main Street,Hayward,CA,94541,5105829500,1,http://www.everest.edu/campus/hayward,3,3,2,2,-2,2,12,1,-2, ,6,-3,1,6001,Alameda County,-122.085034,37.675468
Antelope Valley College,3041 West  Ave K,Lancaster,CA,93536-5426,6617226300,1,http://www.avc.edu,2,1,4,2,2,2,21,1,-2, ,4,40,4,6037,Los Angeles County,-118.184546,34.674985
Art Center College of Design,1700 Lida St,Pasadena,CA,91103,6263962200,1,http://www.artcenter.edu,1,2,7,2,2,2,12,1,-2, ,2,56,2,6037,Los Angeles County,-118.186916,34.169997
Associated Technical College-Los Angeles,1670 Wilshire Blvd,Los Angeles,CA,90017-1604,2134136808,1,http://www.atcla.edu,3,3,1,2,-2,2,11,1,-2, ,6,-3,1,6037,Los Angeles County,-118.272335,34.05636
Associated Technical College-San Diego,707 Broadway-Ste 300,San Diego,CA,92101,6192342181309,1,http://www.associatedtechcollege.com,3,3,1,2,-2,2,11,1,-2, ,6,-3,1,6073,San Diego County,-117.157997,32.715643
Azusa Pacific University,901 E Alosta,Azusa,CA,91702-7000,6269693434,1,http://www.apu.edu,1,2,9,2,2,2,21,1,-2, ,2,21,3,6037,Los Angeles County,-117.890001,34.128897
Bakersfield College,1801 Panorama Dr,Bakersfield,CA,93305-1299,6613954011,1,http://www.bakersfieldcollege.edu/,2,1,3,2,2,2,11,1,-2, ,4,40,4,6029,Kern County,-118.973206,35.410917
Bridges Academy of Beauty,423 E Main St,Barstow,CA,92311,7602560515,1,http://www.bridgesacademyofbeauty.com,3,3,2,2,-2,2,32,1,-2, ,6,-3,1,6071,San Bernardino County,-117.02158,34.898722
Barstow Community College,2700 Barstow Road,Barstow,CA,92311,7602522411,1,http://www.barstow.edu,2,1,3,2,2,2,41,1,-2,Barstow College,4,40,2,6071,San Bernardino County,-117.015632,34.855271
Bay Vista College of Beauty,1520 East Plaza Blvd,National City,CA,91950,61947466070,1,http://www.sandiegobeautyacademy.com,2,3,4,2,-2,2,13,1,-2, ,6,-3,1,6073,San Diego County,-117.089833,32.676836
Bethany University,800 Bethany Dr,Scotts Valley,CA,95066-2898,8314383800,1,http://www.bethany.edu,1,2,7,2,2,2,22,1,-2, ,2,32,1,6087,Santa Cruz County,-121.994343,37.074773
Bethesda Christian University,730 N. Euclid St,Anaheim,CA,92801,7145171945,1,http://www.bcu.edu,1,2,9,2,2,2,11,1,-2, ,2,51,1,6059,Orange County,-117.941619,33.842251
Biola University,13800 Biola Ave,La Mirada,CA,90639-0001,5629036000,1,http://www.biola.edu,1,2,9,2,2,2,21,1,-2, ,2,16,3,6037,Los Angeles County,-118.017982,33.905083
Brooks Institute,1321 Alameda Padre Serra,Santa Barbara,CA,93108,8059663888,1,http://www.brooks.edu,1,3,7,2,-2,2,13,1,-2,BI,2,56,1,6083,Santa Barbara County,-119.694882,34.437392
Brownson Technical School,1110 Technology Cir Ste D,Anaheim,CA,92805,7147749443,1,http://brownson.edu,3,3,2,2,-2,2,11,1,-2, ,6,-3,1,6059,Orange County,-117.906603,33.819219
Bryan College-Los Angeles,3580 Wilshire blvd suite 400,Los Angeles,CA,90010,2134848850,1,http://www.bryancollege.edu,2,3,4,2,-2,2,11,1,-2, ,4,-3,1,6037,Los Angeles County,-118.302824,34.061733
Butte College,3536 Butte Campus Drive,Oroville,CA,95965-8399,5308952511,1,http://www.butte.edu,2,1,4,2,2,2,42,1,-2, ,4,40,4,6007,Butte County,-121.65112,39.650045
Phillips Graduate Institute,5445 Balboa Blvd,Encino,CA,91316-1509,8183865600,1,http://pgi.edu,1,2,9,2,2,2,11,1,-2, ,1,59,1,6037,Los Angeles County,-118.501104,34.170022
California Institute of Integral Studies,1453 Mission Street,San Francisco,CA,94103,4155756100,1,http://www.ciis.edu,1,2,9,2,2,2,11,1,-2,CIIS,2,59,2,6075,San Francisco County,-122.416492,37.774828
Cabrillo College,6500 Soquel Dr,Aptos,CA,95003,8314796100,1,http://www.cabrillo.edu,2,1,3,2,2,2,22,1,-2, ,4,40,4,6087,Santa Cruz County,-121.928163,36.989141
California Baptist University,8432 Magnolia Ave,Riverside,CA,92504-3297,9516895771,1,http://www.calbaptist.edu,1,2,7,2,2,2,11,1,-2, ,2,21,2,6065,Riverside County,-117.427126,33.931322
California College of the Arts,5212 Broadway,Oakland,CA,94618-1487,5105943600,1,http://www.cca.edu,1,2,7,2,2,2,11,1,-2, ,2,56,2,6001,Alameda County,-122.251396,37.835739
University of California Hastings College of Law,200 McAllister St,San Francisco,CA,94102-4978,4155654600,1,http://www.uchastings.edu,1,1,9,2,2,2,11,1,-2, ,1,57,2,6075,San Francisco County,-122.415566,37.780684
California Institute of Technology,1200 E California Blvd,Pasadena,CA,91125,6263956811,1,http://www.caltech.edu,1,2,9,2,2,2,12,1,-2,Caltech|Cal Tech,2,15,2,6037,Los Angeles County,-118.127476,34.135914
California Lutheran University,60 W Olsen Rd,Thousand Oaks,CA,91360-2787,8054922411,1,http://www.callutheran.edu/,1,2,9,2,2,2,12,1,-2, ,2,21,2,6111,Ventura County,-118.8771,34.225543
California Polytechnic State University-San Luis Obispo,One Grand Ave,San Luis Obispo,CA,93407,8057561111,1,http://www.calpoly.edu,1,1,7,2,2,2,23,1,-2, ,2,21,4,6079,San Luis Obispo County,-120.65856,35.29889
Alliant International University,10455 Pomerado Road,San Diego,CA,92131-1799,8668255426,1,http://www.alliant.edu,1,2,9,2,2,2,11,1,-2, ,2,59,2,6073,San Diego County,-117.101282,32.898087
California State University-Bakersfield,9001 Stockdale Hwy,Bakersfield,CA,93311-1099,6616542782,1,http://www.csub.edu,1,1,7,2,2,2,11,1,-2, ,2,21,3,6029,Kern County,-119.103271,35.354272
California State University-Stanislaus,One University Circle,Turlock,CA,95382-0299,2096673122,1,http://www.csustan.edu,1,1,9,2,2,2,23,1,-2,CSU Stanislaus,2,21,3,6099,Stanislaus County,-120.85747,37.52577
California State University-Chancellors Office,"Analytic Studies 401 Golden Shore, 6th Floor",Long Beach,CA,90802-4210,56295140004755,2,http://www.calstate.edu/,1,1,9,2,2,-2,11,1,-2, ,-2,-3,-2,6037,Los Angeles County,-118.2012,33.76435
California State University-San Bernardino,5500 University Pky,San Bernardino,CA,92407-2397,9095375000,1,http://www.csusb.edu,1,1,9,2,2,2,12,1,-2, ,2,21,4,6071,San Bernardino County,-117.328235,34.177998
California State Polytechnic University-Pomona,3801 West Temple Avenue,Pomona,CA,91768,9098697659,1,http://www.csupomona.edu,1,1,7,2,2,2,12,1,-2, ,2,21,5,6037,Los Angeles County,-117.820714,34.05037
California State University-Chico,First and Normal Sts,Chico,CA,95929-0150,5308986116,1,http://www.csuchico.edu,1,1,7,2,2,2,13,1,-2, ,2,21,4,6007,Butte County,-121.84621,39.73177
California State University-Dominguez Hills,1000 E Victoria St,Carson,CA,90747-0005,3102433300,1,http://www.csudh.edu,1,1,8,2,2,2,13,1,-2,CSUDH,2,21,4,6037,Los Angeles County,-118.25869,33.867102
California State University-Fresno,5241 N Maple Ave,Fresno,CA,93740,5592784240,1,http://www.csufresno.edu,1,1,9,2,2,2,11,1,-2, ,2,21,5,6019,Fresno County,-119.745289,36.815306
California State University-Fullerton,800 N State College Blvd,Fullerton,CA,92831-3599,6572782011,1,http://www.fullerton.edu,1,1,9,2,2,2,12,1,-2, ,2,21,5,6059,Orange County,-117.887433,33.879642
California State University-East Bay,25800 Carlos Bee Blvd,Hayward,CA,94542,5108853000,1,http://www.csueastbay.edu,1,1,7,2,2,2,12,1,-2,Cal State East Bay,2,21,4,6001,Alameda County,-122.062441,37.658892
California State University-Long Beach,1250 Bellflower Blvd,Long Beach,CA,90840-0115,5629854111,1,http://www.csulb.edu,1,1,9,2,2,2,11,1,-2,Cal State Long Beach,2,21,5,6037,Los Angeles County,-118.122256,33.781967
California State University-Los Angeles,5151 State University Dr,Los Angeles,CA,90032,3233433000,1,http://www.calstatela.edu,1,1,9,2,2,2,11,1,-2, ,2,21,5,6037,Los Angeles County,-118.171605,34.062369
California State University-Northridge,18111 Nordhoff St,Northridge,CA,91330,8186771200,1,http://www.csun.edu,1,1,9,2,2,2,11,1,-2, ,2,21,5,6037,Los Angeles County,-118.527573,34.235561
California State University-Sacramento,6000 J St,Sacramento,CA,95819-2694,9162786011,1,http://www.csus.edu,1,1,9,2,2,2,11,1,-2,Sacramento State,2,21,5,6067,Sacramento County,-121.427431,38.567103
University of California-Berkeley, ,Berkeley,CA,94720,5106426000,1,http://www.berkeley.edu,1,1,9,2,2,2,12,1,-2,UC Berkeley,2,15,5,6001,Alameda County,-122.254334,37.87059
University of California-Davis,One Shields Avenue,Davis,CA,95616-8678,5307521011,1,http://www.ucdavis.edu,1,1,9,2,1,1,23,1,-2,UC Davis,2,15,5,6113,Yolo County,-121.75008,38.54027
University of California-Irvine, ,Irvine,CA,92697,9498245011,1,http://www.uci.edu/,1,1,9,2,1,1,12,1,-2,UCI |UC Irvine,2,15,5,6059,Orange County,-117.842133,33.647124
University of California-Los Angeles,405 Hilgard Ave,Los Angeles,CA,90095-1405,3108254321,1,http://www.ucla.edu/,1,1,9,2,1,1,11,1,-2,UCLA,2,15,5,6037,Los Angeles County,-118.437942,34.074002
University of California-Riverside,900 University Ave,Riverside,CA,92521,9518271012,1,http://WWW.UCR.EDU,1,1,9,2,2,2,11,1,-2,UC Riverside,2,15,5,6065,Riverside County,-117.331107,33.975885
University of California-San Diego,9500 Gilman Dr,La Jolla,CA,92093,8585342230,1,http://www.ucsd.edu,1,1,9,2,1,1,11,1,-2,UCSD |UC San Diego,2,15,5,6073,San Diego County,-117.239122,32.875469
University of California-San Francisco,500 Parnassus Ave,San Francisco,CA,94143-0244,4154769000,1,http://www.ucsf.edu,1,1,9,2,1,1,11,1,-2,"UCSF |UC San Francisco |University of California at San Francisco |University of California, San Francisco",1,16,2,6075,San Francisco County,-122.459818,37.763031
University of California-Santa Barbara, ,Santa Barbara,CA,93106,8058938000,1,http://www.ucsb.edu,1,1,9,2,2,2,22,1,-2,UCSB |UC Santa Barbara,2,15,5,6083,Santa Barbara County,-119.84342,34.414661
University of California-Santa Cruz,1156 High St,Santa Cruz,CA,95064-1011,8314590111,1,http://www.ucsc.edu/,1,1,9,2,2,2,13,1,-2, ,2,15,4,6087,Santa Cruz County,-122.052313,36.977156
Institute of Transpersonal Psychology,1069 East Meadow Cr,Palo Alto,CA,94303,6504934430,1,http://www.itp.edu,1,2,9,2,2,2,13,1,-2, ,1,59,1,6085,Santa Clara County,-122.108884,37.430114
California Beauty School,1115 15th St,Modesto,CA,95354,2095245184212,1,http://www.calbeautycollege.com,3,3,2,2,-2,2,12,1,-2, ,6,-3,1,6099,Stanislaus County,-120.997081,37.645419
California Christian College,4881 E University Ave,Fresno,CA,93703-3599,5592514215,1,http://www.calchristiancollege.org,1,2,5,2,2,2,11,1,-2, ,2,51,1,6019,Fresno County,-119.732776,36.76662
California College-San Diego,"2820 Camino Del Rio South, Suite 300",San Diego,CA,92108-3824,61968044301501,1,http://www.cc-sd.edu,1,3,5,2,-2,2,11,1,-2, ,3,40,1,6073,San Diego County,-117.133698,32.770239
California Culinary Academy,350 Rhode Island Street,San Francisco,CA,94103,4157713500,1,http://www.caculinary.edu,2,3,3,2,-2,2,11,1,-2, ,4,40,1,6075,San Francisco County,-122.402691,37.765412
California Hair Design Academy,"8011 University Avenue, Suite A-2",La Mesa,CA,91941-5055,6194618600,1,,3,3,2,2,-2,2,21,1,-2, ,6,-3,1,6073,San Diego County,-117.025306,32.765662
California Institute of the Arts,24700 W McBean Pky,Valencia,CA,91355-2397,6612551050,1,http://www.calarts.edu,1,2,9,2,2,2,22,1,-2,CalArts,2,56,2,6037,Los Angeles County,-118.56614,34.394751
California Maritime Academy,200 Maritime Academy Dr,Vallejo,CA,94590,7076541000,1,http://www.csum.edu,1,1,5,2,2,2,12,1,-2,CMA,2,59,1,6095,Solano County,-122.230748,38.073816
California Western School of Law,225 Cedar St,San Diego,CA,92101-3046,6195257073,1,http://www.cwsl.edu,1,2,9,2,2,2,11,1,-2, ,1,57,1,6073,San Diego County,-117.162506,32.72196
Canada College,4200 Farm Hill Blvd.,Redwood City,CA,94061-1099,6503063100,1,http://canadacollege.edu,2,1,4,2,2,2,21,1,-2, ,4,40,3,6081,San Mateo County,-122.260383,37.447062
College of the Canyons,26455 Rockwell Canyon Rd,Santa Clarita,CA,91355-1899,6612597800,1,http://www.canyons.edu,2,1,3,2,2,2,22,1,-2, ,4,40,5,6037,Los Angeles County,-118.567583,34.407188
Career Academy of Beauty,12471 Valley View,West Garden Grove,CA,92845-0000,7148973010103,1,http://CAofB.com,3,3,2,2,-2,2,21,1,-2, ,6,-3,1,6059,Orange County,-118.031392,33.781049
Casa Loma College-Van Nuys,6725 Kester Ave,Van Nuys,CA,91405,8187852726,1,http://www.casalomacollege.edu,2,2,4,2,2,2,11,1,-2, ,4,-3,1,6037,Los Angeles County,-118.457461,34.192606
CET-San Diego,4153 Market Street,San Diego,CA,92102,4082877924,1,,3,2,2,2,2,2,11,1,-2, ,6,-3,1,6073,San Diego County,-117.104837,32.711482
CET-Sobrato,701 Vine St,San Jose,CA,95110,4082877924,1,,3,2,2,2,2,2,11,1,-2, ,6,-3,1,6085,Santa Clara County,-121.885938,37.322017
CET-El Centro,294 S 3rd St,El Centro,CA,92243,4082877924,1,,3,2,2,2,2,2,13,1,-2, ,6,-3,1,6025,Imperial County,-115.548865,32.790829
CET-San Bernardino,1430 Cooley Court,San Bernardino,CA,92408,4082877924,1,,3,2,2,2,2,2,12,1,-2,Institution relocated to the new address below,6,-3,1,6071,San Bernardino County,-117.268354,34.075028
CET-Watsonville,10 Blanca Lane,Watsonville,CA,95076,4082877924,1,,3,2,2,2,2,2,13,1,-2, ,6,-3,1,6087,Santa Cruz County,-121.76825,36.932055
CET-Gilroy,7800 Arroyo Cir,Gilroy,CA,95020,4082877924,1,,3,2,2,2,2,2,41,1,-2, ,6,-3,1,6085,Santa Clara County,-121.562133,37.015393
CET-Salinas,421 Monterey St,Salinas,CA,93901,4082877924,1,,3,2,2,2,2,2,12,1,-2, ,6,-3,1,6053,Monterey County,-121.653267,36.671509
Cerritos College,11110 Alondra Blvd,Norwalk,CA,90650-6298,5628602451,1,http://WWW.CERRITOS.EDU,2,1,4,2,2,2,21,1,-2, ,4,40,5,6037,Los Angeles County,-118.097454,33.887435
Cerro Coso Community College,3000 College Hts Blvd,Ridgecrest,CA,93555-9571,7603846100,1,http://www.cerrocoso.edu,2,1,3,2,2,2,41,1,-2, ,4,40,3,6029,Kern County,-117.670435,35.577391
Chabot College,25555 Hesperian Blvd,Hayward,CA,94545,5107236600,1,http://www.chabotcollege.edu,2,1,3,2,2,2,12,1,-2, ,4,40,4,6001,Alameda County,-122.1027,37.640391
Chaffey College,5885 Haven Ave,Rancho Cucamonga,CA,91737-3002,9099871737,1,http://www.chaffey.edu,2,1,4,2,2,2,21,1,-2, ,4,40,4,6071,San Bernardino County,-117.575668,34.145967
Chapman University,One University Dr.,Orange,CA,92866,7149976815,1,http://www.chapman.edu,1,2,9,2,2,2,12,1,-2, ,2,21,3,6059,Orange County,-117.85168,33.79303
Charles R Drew University of Medicine and Science,1731 E 120th St,Los Angeles,CA,90059,3235634800,1,http://www.cdrewu.edu,1,2,7,2,2,2,21,1,-2,CDU,3,53,1,6037,Los Angeles County,-118.242462,33.924654
Concordia University-Irvine,1530 Concordia West,Irvine,CA,92612-3203,9498548002,1,http://www.cui.edu,1,2,7,2,2,2,12,1,-2,Concordia University Irvine,2,22,2,6059,Orange County,-117.8077,33.655664
San Diego Christian College,2100 Greenfield Dr,El Cajon,CA,92019-1157,6192018700,1,http://www.sdcc.edu,1,2,6,2,2,2,21,1,-2, ,2,31,1,6073,San Diego County,-116.904289,32.79999
Church Divinity School of the Pacific,2451 Ridge Road,Berkeley,CA,94709-1211,5102040700,1,http://www.cdsp.edu,1,2,9,2,2,2,12,1,-2,CDSP,1,51,1,6001,Alameda County,-122.260951,37.875943
Citrus College,1000 W Foothill Blvd,Glendora,CA,91741-1899,6269630323,1,http://www.citruscollege.edu,2,1,4,2,2,2,21,1,-2, ,4,40,4,6037,Los Angeles County,-117.884047,34.135951
City College of San Francisco,50 Phelan Ave,San Francisco,CA,94112-1898,4152393000,1,http://www.ccsf.edu,2,1,4,2,2,2,11,1,-2, ,4,40,5,6075,San Francisco County,-122.452309,37.726771
Claremont Graduate University,150 E Tenth St,Claremont,CA,91711-6160,9096218000,1,http://www.cgu.edu,1,2,9,2,2,2,21,1,-2, ,1,15,2,6037,Los Angeles County,-117.714076,34.10335
Claremont McKenna College,500 E 9th St,Claremont,CA,91711-6400,9096218000,1,http://www.claremontmckenna.edu/,1,2,7,2,2,2,21,1,-2, ,2,31,2,6037,Los Angeles County,-117.707045,34.102557
Milan Institute-Visalia,6500 S. Mooney Blvd.,Visalia,CA,93277,5596843900,1,http://www.milaninstitute.edu,3,3,1,2,-2,2,12,1,-2, ,6,-3,1,6107,Tulare County,-119.313417,36.284044
Cleveland Chiropractic College of Los Angeles,590 N Vermont Ave,Los Angeles,CA,90004-2196,3236606166,1,http://www.cleveland.edu,1,2,9,2,2,2,11,1,-2, ,2,53,1,6037,Los Angeles County,-118.291713,34.081545
Clovis Adult Education,1452 David E Cook Way,Clovis,CA,93611,5593272800,1,,3,1,2,2,2,2,21,1,-2, ,6,-3,1,6019,Fresno County,-119.690637,36.835872
Coast Community College District Office,1370 Adams Ave.,Costa Mesa,CA,92626,7144384600,2,http://www.cccd.edu,2,1,4,2,2,-2,12,1,-2, ,-2,-3,-2,6059,Orange County,-117.915273,33.673955
Coastline Community College,11460 Warner Ave.,Fountain Valley,CA,92708-2597,7145467600,1,http://www.coastline.edu,2,1,3,2,2,2,13,1,-2, ,4,40,4,6059,Orange County,-117.929579,33.716363
Cogswell Polytechnical College,1175 Bordeaux  Drive,Sunnyvale,CA,94089,4085410100,1,http://www.cogswell.edu,1,2,5,2,2,2,41,1,-2,Cogswell College,2,32,1,6085,Santa Clara County,-122.023344,37.407374
Coleman University,8888 Balboa Ave,San Diego,CA,92123-1506,858499020212004,1,http://www.coleman.edu,1,2,7,2,2,2,11,1,-2,Formerly Coleman College,3,59,1,6073,San Diego County,-117.135995,32.82143
COBA Academy,102 N Glassell St,Orange,CA,92866,7146335950,1,http://www.coba.edu,3,3,2,2,-2,2,12,1,-2, ,6,-3,1,6059,Orange County,-117.853233,33.788226
Western University of Health Sciences,309 E 2nd St,Pomona,CA,91766-1854,9096236116,1,http://www.westernu.edu,1,2,9,2,2,1,12,1,-2, ,1,52,2,6037,Los Angeles County,-117.747847,34.057955
Columbia College,11600 Columbia College Dr,Sonora,CA,95370,2095885100,1,http://www.gocolumbia.edu/,2,1,3,2,2,2,33,1,-2,Columbia Junior College |CC,4,40,2,6109,Tuolumne County,-120.388356,38.029168
Columbia College-Hollywood,18618 Oxnard St,Tarzana,CA,91356-1411,8183458414,1,http://WWW.COLUMBIACOLLEGE.EDU,1,2,5,2,2,2,11,1,-2, ,2,56,1,6037,Los Angeles County,-118.53889,34.179962
El Camino College-Compton Center,1111 East Artesia Blvd.,Compton,CA,90221-5393,3109001600,1,http://www.compton.edu,2,1,4,2,2,2,13,1,-2, ,4,40,3,6037,Los Angeles County,-118.209134,33.874419
Western Beauty Institute,8700 Van Nuys Blvd,Panorama City,CA,91402,8188949550,1,http://wbi.edu,3,3,2,2,-2,2,11,1,-2,San Fernando Beauty Academy,6,-3,1,6037,Los Angeles County,-118.45012,34.228021
Contra Costa Community College District Office,500 Court St,Martinez,CA,94553,9252291000,2,http://www.4cd.net/,2,1,4,2,2,-2,21,1,-2,"Contra Costa CCD, CCCCD",-2,-3,-2,6013,Contra Costa County,-122.135097,38.019263
Contra Costa College,2600 Mission Bell Dr,San Pablo,CA,94806-3195,5102357800,1,http://www.contracosta.edu,2,1,4,2,2,2,21,1,-2,CCC,4,40,3,6013,Contra Costa County,-122.342159,37.968886
Cosumnes River College,8401 Center Parkway,Sacramento,CA,95823-5799,9166887344,1,http://www.crc.losrios.edu/,2,1,4,2,2,2,11,1,-2,Cosumnes River | CRC,4,40,4,6067,Sacramento County,-121.426993,38.45239
Crafton Hills College,11711 Sand Canyon Road,Yucaipa,CA,92399-1799,9097942161,1,http://www.craftonhills.edu,2,1,4,2,2,2,41,1,-2,CHC |Crafton,4,40,3,6071,San Bernardino County,-117.106331,34.03995
Cuesta College,Highway 1,San Luis Obispo,CA,93403-8106,80554631003946,1,http://WWW.CUESTA.EDU,2,1,4,2,2,2,41,1,-2, ,4,40,4,6079,San Luis Obispo County,-120.67182,35.27279
Cuyamaca College,900 Rancho San Diego Pky,El Cajon,CA,92019,6196604000,1,http://www.cuyamaca.edu,2,1,3,2,2,2,21,1,-2, ,4,40,3,6073,San Diego County,-116.938335,32.746192
Marinello Schools of Beauty-Bell,4130 E Gage Ave,Bell,CA,90201,5629452211,1,http://www.marinello.com,3,3,2,2,-2,2,21,1,-2, ,6,-3,1,6037,Los Angeles County,-118.193355,33.978651
Cypress College,9200 Valley View,Cypress,CA,90630-5897,7144847000,1,http://www.cypresscollege.edu,2,1,4,2,2,2,21,1,-2, ,4,40,4,6059,Orange County,-118.025102,33.828139
De Anza College,21250 Stevens Creek Blvd.,Cupertino,CA,95014,4088645678,1,http://www.deanza.edu/,2,1,4,2,-2,2,13,1,-2, ,4,40,5,6085,Santa Clara County,-122.046103,37.322798
Marinello Schools of Beauty-Hemet,2627 W Florida Ave-Ste 100,Hemet,CA,92545,5629452211,1,http://www.marinello.com,3,3,2,2,-2,2,13,1,-2, ,6,-3,1,6065,Riverside County,-116.999767,33.747387
International School of Beauty Inc,72261 Hwy 111 Ste 121-B,Palm Desert,CA,92260-2740,760674162445,1,http://internationalschoolofbeauty.com,3,3,2,2,-2,2,41,1,-2,International School of Beauty,6,-3,1,6065,Riverside County,-116.403765,33.729597
Dell'Arte International School of Physical Theatre,131 H Street,Blue Lake,CA,95525-0816,7076685663,1,http://www.dellarte.com/school,1,2,7,2,2,2,41,1,-2, ,1,-3,1,6023,Humboldt County,-123.989104,40.880649
College of the Desert,43-500 Monterey Ave,Palm Desert,CA,92260,7603468041,1,http://www.collegeofthedesert.edu,2,1,4,2,2,2,13,1,-2, ,4,40,3,6065,Riverside County,-116.38753,33.73256
Design Institute of San Diego,8555 Commerce Ave,San Diego,CA,92121,8585661200,1,http://WWW.DISD.EDU,1,3,5,2,-2,2,11,1,-2, ,2,56,1,6073,San Diego County,-117.167676,32.880904
DeVry University-California,901 Corporate Ctr Dr,Pomona,CA,91768-2642,9096228866,1,http://www.devry.edu,1,3,7,2,-2,2,12,1,-2,DeVry University-Alhambra |DeVry University-Anaheim |DeVry University-Bakersfield |DeVry University-Colton |DeVry University-Daly City |DeVry University-Fremont |DeVry University-Fresno |DeVry University-Irvine |DeVry University-Long Beach |DeVry University-Oakland |DeVry University-Palmdale |DeVry University-Pomona |DeVry University-Sacramento |DeVry University-San Diego |DeVry University-San Jose |DeVry University-Sherman Oaks,2,32,4,6037,Los Angeles County,-117.803061,34.063021
Diablo Valley College,321 Golf Club Rd,Pleasant Hill,CA,94523,9256851230,1,http://www.dvc.edu,2,1,4,2,2,2,21,1,-2,DVC,4,40,5,6013,Contra Costa County,-122.070715,37.971325
Dominican University of California,50 Acacia Ave,San Rafael,CA,94901-2298,4154574440,1,http://www.dominican.edu,1,2,7,2,2,2,13,1,-2,DUofC,2,21,2,6041,Marin County,-122.513932,37.979956
Dominican School of Philosophy & Theology,2301 Vine Street,Berkeley,CA,94708-1816,5108492030,1,http://www.dspt.edu,1,2,7,2,2,2,12,1,-2,The Dominican School|DSPT|St. Albert's College|College of St. Albert the Great,1,51,1,6001,Alameda County,-122.264752,37.880865
East Los Angeles College,1301 Avenida Cesar Chavez,Monterey Park,CA,91754-6099,3232658650,1,http://www.elac.edu/index.htm,2,1,4,2,2,2,13,1,-2, ,4,40,5,6037,Los Angeles County,-118.148269,34.039187
Marinello Schools of Beauty-Santa Clara,955 Monroe St,Santa Clara,CA,95050,5629452211,1,http://www.marinello.com,3,3,2,2,-2,2,12,1,-2, ,6,-3,1,6085,Santa Clara County,-121.947913,37.348152
San Diego Continuing Education,4343 Ocean View Blvd,San Diego,CA,92113,6193884881,1,http://www.sdce.edu/,3,1,2,2,2,2,11,1,-2, ,6,-3,2,6073,San Diego County,-117.101778,32.700498
El Camino Community College District,16007 Crenshaw Blvd,Torrance,CA,90506,3105323670,1,http://www.elcamino.edu,2,1,4,2,2,2,21,1,-2,ECC,4,40,5,6037,Los Angeles County,-118.326597,33.885352
Elegance International,1622 N. Highland Ave,Hollywood,CA,90028-6106,3238718318,1,http://www.ei.edu,3,3,1,2,-2,2,11,1,-2, ,6,-3,1,6037,Los Angeles County,-118.338691,34.100413
Marinello Schools of Beauty-City of Industry,1600 South Azusa Ave Ste 242,City of Industry,CA,91748,5629452211,1,http://www.marinello.com,3,3,2,2,-2,2,21,1,-2, ,6,-3,1,6037,Los Angeles County,-117.931425,33.993626
Marinello Schools of Beauty-Burbank,200 N. San Fernando Blvd,Burbank,CA,91502,5629452211,1,http://www.marinello.com,3,3,2,2,-2,2,12,1,-2, ,6,-3,1,6037,Los Angeles County,-118.309921,34.181763
Marinello Schools of Beauty-Moreno Valley,24741 Alessandro Blvd,Moreno Valley,CA,92553,5629452211,1,http://www.marinello.com,3,3,2,2,-2,2,21,1,-2, ,6,-3,1,6065,Riverside County,-117.230345,33.917146
Emperor's College of Traditional Oriental Medicine,"1807 Wilshire Blvd, Ste #200",Santa Monica,CA,90403,3104538300,1,http://www.emperors.edu,1,3,9,2,-2,2,13,1,-2, ,1,53,1,6037,Los Angeles County,-118.484595,34.030315
Empire College School of Business,3035 Cleveland Ave,Santa Rosa,CA,95403-2126,7075464000,1,http://www.empcol.edu,2,3,3,2,-2,2,12,1,-2, ,4,40,1,6097,Sonoma County,-122.729022,38.468539
Evergreen Valley College,3095 Yerba Buena Rd,San Jose,CA,95135-1598,4082747900,1,http://www.evc.edu,2,1,4,2,2,2,11,1,-2, ,4,40,4,6085,Santa Clara County,-121.769271,37.299814
FIDM/Fashion Institute of Design & Merchandising-Los Angeles,919 S Grand Ave,Los Angeles,CA,90015-1421,2136241200,1,http://www.fidm.edu,1,3,5,2,-2,2,11,1,-2,FIDM LA,3,40,2,6037,Los Angeles County,-118.259357,34.044404
Fashion Careers College,1923 Morena Blvd,San Diego,CA,92110-3555,6192754700301,1,http://www.fashioncollege.com,2,3,3,2,-2,2,11,1,-2,Fashion Careers of California College,4,40,1,6073,San Diego County,-117.20727,32.780841
FIDM/Fashion Institute of Design & Merchandising-San Francisco,55 Stockton St,San Francisco,CA,94108-5805,4156755200,1,http://WWW.FIDM.EDU,1,3,5,2,-2,2,11,1,-2,FIDM-SF,3,-3,1,6075,San Francisco County,-122.406376,37.786466
FIDM/Fashion Institute of Design & Merchandising-Orange County,17590 Gillette Avenue,Irvine,CA,92614-5610,9498516200,1,http://FIDM.edu,2,3,3,2,-2,-2,12,1,-2,FIDM-OC,4,-3,1,6059,Orange County,-117.853235,33.692474
Feather River Community College District,570 Golden Eagle Ave,Quincy,CA,95971-9124,5302830202,1,http://www.frc.edu,2,1,3,2,2,2,43,1,-2,Feather River College,4,40,2,6063,Plumas County,-120.971382,39.952625
Federico Beauty Institute,1515 Sports Drive    Ste 100,Sacramento,CA,95834,9169294242,1,http://federico.edu,3,3,2,2,-2,2,41,1,-2, ,6,-3,1,6067,Sacramento County,-121.497712,38.648326
Fielding Graduate University,2112 Santa Barbara St,Santa Barbara,CA,93105-3538,8056871099,1,http://www.fielding.edu,1,2,9,2,2,2,13,1,-2,Fielding|Fielding Institute|Fielding Graduate Institute,1,59,2,6083,Santa Barbara County,-119.714032,34.434244
Five Branches University,200 7th Avenue,Santa Cruz,CA,95062,831476942432,1,http://www.fivebranches.edu,1,2,9,2,2,2,22,1,-2, ,1,53,1,6087,Santa Cruz County,-121.998468,36.964366
Hair California Beauty Academy,1110 N Tustin St,Orange,CA,92867,7146337170,1,,3,3,2,2,-2,2,12,1,-2, ,6,-3,1,6059,Orange County,-117.835701,33.806094
Foothill College,12345 El Monte Rd,Los Altos Hills,CA,94022,6509497777,1,http://www.foothill.edu,2,1,4,2,2,2,21,1,-2, ,4,40,4,6085,Santa Clara County,-122.128889,37.358103
Franciscan School of Theology,1712 Euclid Ave,Berkeley,CA,94709-1208,5108485232,1,http://www.fst.edu,1,2,7,2,2,2,12,1,-2,FST,1,51,1,6001,Alameda County,-122.260583,37.877163
Fredrick and Charles Beauty College,831 F St,Eureka,CA,95501,7074432733,1,,3,3,2,2,-2,2,33,1,-2, ,6,-3,1,6023,Humboldt County,-124.165292,40.799218
Fresno City College,1101 E. University Ave,Fresno,CA,93741,5594424600,1,http://www.fresnocitycollege.edu,2,1,4,2,2,2,11,1,-2, ,4,40,5,6019,Fresno County,-119.797983,36.765891
Fresno Pacific University,1717 S Chestnut Ave,Fresno,CA,93702-4709,5594532000,1,http://www.fresno.edu,1,2,7,2,2,2,11,1,-2, ,2,21,2,6019,Fresno County,-119.736344,36.726031
Foothill-De Anza Community College District,12345 El Monte Rd,Los Altos Hills,CA,94022-4599,6509496106,2,http://www.fhda.edu,2,1,4,2,2,-2,21,1,-2, ,-2,-3,-2,6085,Santa Clara County,-122.128889,37.358103
Fuller Theological Seminary in California,135 N Oakland Ave,Pasadena,CA,91182,6265845200,1,http://www.fuller.edu,1,2,9,2,2,2,12,1,-2, ,1,51,2,6037,Los Angeles County,-118.13974,34.147201
Fullerton College,321 E Chapman Avenue,Fullerton,CA,92832-2095,7149927000,1,http://www.fullcoll.edu,2,1,4,2,2,2,12,1,-2, ,4,40,5,6059,Orange County,-117.919253,33.874008
Galen College of Medical and Dental Assistants,1325 N Wishon Ave,Fresno,CA,93728,5592649700,1,http://www.galencollege.com,3,3,1,2,-2,2,11,1,-2, ,6,-3,1,6019,Fresno County,-119.801065,36.760139
Gavilan College,5055 Santa Teresa Blvd,Gilroy,CA,95020,4088484800,1,http://www.gavilan.edu,2,1,4,2,2,2,41,1,-2, ,4,40,3,6085,Santa Clara County,-121.563359,36.968352
Gemological Institute of America,5345 Armada Dr,Carlsbad,CA,92008,7606034000,1,http://www.gia.edu,3,2,1,2,2,2,41,1,-2, ,6,-3,2,6073,San Diego County,-117.317511,33.131547
Glendale Community College,1500 N Verdugo Rd,Glendale,CA,91208-2894,8182401000,1,http://www.glendale.edu,2,1,3,2,2,2,12,1,-2,GCC | Glendale College,4,40,4,6037,Los Angeles County,-118.229868,34.167223
Glendale Career College,1015 Grandview Ave,Glendale,CA,91201,8189564915220,1,http://www.success.edu,3,3,2,2,-2,2,12,1,-2,dba Glendale Career College,6,-3,1,6037,Los Angeles County,-118.281833,34.163511
Golden Gate University-San Francisco,536 Mission Street,San Francisco,CA,94105-2968,4154427800,1,http://www.ggu.edu,1,2,9,2,2,2,11,1,-2, ,2,55,2,6075,San Francisco County,-122.398429,37.789168
Golden West College,15744 Goldenwest St.,Huntington Beach,CA,92647-2710,7148927711,1,http://www.goldenwestcollege.edu,2,1,4,2,2,2,21,1,-2, ,4,40,4,6059,Orange County,-118.006781,33.734432
Graduate Theological Union,2400 Ridge Rd,Berkeley,CA,94709,5106492400,1,http://WWW.GTU.EDU,1,2,9,2,2,2,12,1,-2,GTU,1,51,1,6001,Alameda County,-122.262448,37.876176
Grossmont-Cuyamaca Community College District,8800 Grossmont College Dr,El Cajon,CA,92020-1799,6196447010,2,http://www.gcccd.edu,2,1,4,2,2,-2,21,1,-2, ,-2,-3,-2,6073,San Diego County,-117.008891,32.814927
Grossmont College,8800 Grossmont College Dr,El Cajon,CA,92020-1799,6196447000,1,http://www.grossmont.edu/,2,1,4,2,2,2,21,1,-2, ,4,40,4,6073,San Diego County,-117.008891,32.814927
Salon Success Academy-San Bernardino,208 W Highland Ave,San Bernardino,CA,92405,9099824200,1,http://www.gotobeautyschool.com,3,3,2,2,-2,2,12,1,-2, ,6,-3,1,6071,San Bernardino County,-117.287561,34.135954
Hartnell College,411 Central Avenue,Salinas,CA,93901,8317556700,1,http://www.hartnell.edu,2,1,3,2,2,2,12,1,-2, ,4,40,3,6053,Monterey County,-121.665278,36.675439
Harvey Mudd College,301 Platt Blvd.,Claremont,CA,91711,9096218000,1,http://www.hmc.edu,1,2,5,2,2,2,21,1,-2,"Mudd, HMC",2,31,1,6037,Los Angeles County,-117.712028,34.105473
Heald College-Rancho Cordova,2910 Prospect Park Dr,Rancho Cordova,CA,95670,91641427002746,1,http://www.heald.edu,2,3,3,2,-2,2,41,1,-2, ,4,40,2,6067,Sacramento County,-121.27993,38.594908
Heald College-Fresno,255 W Bullard,Fresno,CA,93704,2094384222,1,http://www.heald.edu,2,3,3,2,-2,2,11,1,-2, ,4,40,2,6019,Fresno County,-119.795834,36.822842
Heald College-San Jose,341 Great Mall Pky,Milpitas,CA,95035-8008,4089344900,1,http://www.heald.edu,2,3,3,2,-2,2,13,1,-2, ,4,40,2,6085,Santa Clara County,-121.894764,37.410705
Heald College-San Francisco,350 Mission St,San Francisco,CA,94105,4158083000,1,http://www.heald.edu,2,3,3,2,-2,2,11,1,-2, ,4,40,2,6075,San Francisco County,-122.396406,37.790686
Heald College-Concord,5130 Commercial Circle,Concord,CA,94520-0522,9252885800,1,http://www.Heald.edu,2,3,3,2,-2,2,41,1,-2, ,4,40,2,6013,Contra Costa County,-122.030292,38.019836
Hilltop Beauty School,6317 Mission St,Daly City,CA,94014,6509924949,1,,3,3,2,2,-2,2,21,1,-2, ,6,-3,1,6081,San Mateo County,-122.461606,37.705549
Holy Names University,3500 Mountain Blvd,Oakland,CA,94619-1699,5104361000,1,http://www.hnu.edu,1,2,8,2,2,2,11,1,-2,Formerly Holy Names College,2,21,2,6001,Alameda County,-122.187806,37.801876
Pacifica Graduate Institute,249 Lambert Rd,Carpinteria,CA,93013,8059693626101,1,http://www.pacifica.edu,1,3,9,2,-2,2,22,1,-2, ,1,59,1,6083,Santa Barbara County,-119.57963,34.421207
Humboldt State University,1 Harpst Street,Arcata,CA,95521-8299,7078263011,1,http://www.humboldt.edu,1,1,7,2,2,2,33,1,-2, ,2,21,3,6023,Humboldt County,-124.081592,40.874103
Humphreys College-Stockton and Modesto Campuses,6650 Inglewood Ave,Stockton,CA,95207-3896,2094780800,1,http://www.humphreys.edu,1,2,7,2,2,2,11,1,-2, ,2,33,1,6077,San Joaquin County,-121.316889,38.010697
Imperial Valley College,380 E. Aten Road,Imperial,CA,92251-0158,7603528320,1,http://www.imperial.edu,2,1,4,2,2,2,41,1,-2,IVC,4,40,3,6025,Imperial County,-115.50268,32.825884
Institute for Business and Technology,2400 Walsh Avenue,Santa Clara,CA,95051-1303,4087271060260,1,http://WWW.IBTTECH.COM,3,3,2,2,-2,2,12,1,-2, ,6,-3,1,6085,Santa Clara County,-121.969243,37.369473
LA College International,3200 Wilshire Blvd. #400,Los Angeles,CA,90010-1308,21338133331701,1,http://www.lac.edu,1,3,5,2,-2,2,11,1,-2, ,3,40,1,6037,Los Angeles County,-118.29203,34.061788
Interior Designers Institute,1061 Camelback Rd,Newport Beach,CA,92660,9496754451,1,http://idi.edu,1,3,7,2,-2,2,13,1,-2, ,3,56,1,6059,Orange County,-117.865553,33.641543
Toni & Guy Hairdressing Academy-Santa Monica,1358 5th St,Santa Monica,CA,90401,3104510101,1,http://toniguyacademy.com,3,3,2,2,-2,2,13,1,-2,International School of Cosmetology dba TONI&GUY Hairdressing Academy,6,-3,1,6037,Los Angeles County,-118.494684,34.017509
Irvine Valley College,5500 Irvine Center Drive,Irvine,CA,92618-0301,9494515100,1,http://www.ivc.edu,2,1,3,2,2,2,12,1,-2, ,4,40,4,6059,Orange County,-117.778592,33.679257
ITT Technical Institute-San Diego,9680 Granite Ridge Dr,San Diego,CA,92123,8585718500,1,http://www.itt-tech.edu,1,3,5,2,-2,2,11,1,-2, ,3,54,2,6073,San Diego County,-117.11928,32.806768
ITT Technical Institute-San Dimas,650 W. Cienega Ave.,San Dimas,CA,91773,9099712300,1,http://www.itt-tech.edu,1,3,5,2,-2,2,21,1,-2, ,3,54,1,6037,Los Angeles County,-117.81881,34.103049
ITT Technical Institute-Orange,"4000 W. Metropolitian Dr., Suite 100",Orange,CA,92868,7149412400,1,http://www.itt-tech.edu,1,3,5,2,-2,2,12,1,-2, ,3,54,1,6059,Orange County,-117.895677,33.780231
J Boutique College of Beauty,1073 E Main St,El Cajon,CA,92021,6194423407,1,http://www.sandiegobeautyacademy.com,2,3,4,2,-2,2,21,1,-2, ,6,-3,1,6073,San Diego County,-116.945617,32.794837
Jesuit School of Theology of Santa Clara University,1735 LeRoy Ave,Berkeley,CA,94709,5105495000,1,http://www.scu.edu/jst/,1,2,9,2,-2,2,12,1,-2,JST-SCU,1,51,1,6001,Alameda County,-122.258772,37.877483
John F Kennedy University,100 Ellinwood Way,Pleasant Hill,CA,94523-4817,9259693300,1,http://www.jfku.edu,1,2,9,2,2,2,21,1,-2, ,2,21,2,6013,Contra Costa County,-122.054872,37.956923
American Jewish University,15600 Mulholland Dr,Los Angeles,CA,90077-1519,3104769777539,1,http://www.ajula.edu,1,2,7,2,2,2,11,1,-2,AJU,2,31,1,6037,Los Angeles County,-118.471715,34.129284
Reedley College,995 N Reed Ave,Reedley,CA,93654,5596383641,1,http://www.reedleycollege.edu,2,1,3,2,2,2,32,1,-2, ,4,40,4,6019,Fresno County,-119.457767,36.604952
Life Pacific College,1100 W. Covina Blvd.,San Dimas,CA,91773-3298,9095995433,1,http://www.lifepacific.edu,1,2,5,2,2,2,21,1,-2,LIFE Bible College,2,51,1,6037,Los Angeles County,-117.829024,34.09931
The Art Institute of California-San Diego,7650 Mission Valley Road,San Diego,CA,92108-4423,8662752422,1,http://www.artinstitutes.edu/sandiego/,1,3,5,2,-2,2,11,1,-2,Art Institute of California-San Diego,2,56,2,6073,San Diego County,-117.15509,32.777876
University of La Verne,1950 Third St,La Verne,CA,91750-4401,90959335114900,1,http://www.laverne.edu/,1,2,9,2,2,2,21,1,-2,LaVerne,2,16,3,6037,Los Angeles County,-117.772322,34.101068
Laguna College of Art and Design,2222 Laguna Canyon Rd,Laguna Beach,CA,92651,9493766000,1,http://www.lagunacollege.edu,1,2,7,2,2,2,41,1,-2, ,2,56,1,6059,Orange County,-117.774129,33.557182
Lake Tahoe Community College,One College Drive,South Lake Tahoe,CA,96150,5305414660,1,http://www.ltcc.edu,2,1,3,2,2,2,32,1,-2, ,4,40,2,6017,El Dorado County,-119.97205,38.9271
Lancaster Beauty School,44646 N 10th St W,Lancaster,CA,93534,6619481672,1,,3,3,2,2,-2,2,21,1,-2, ,6,-3,1,6037,Los Angeles County,-118.148075,34.694869
Laney College,900 Fallon St,Oakland,CA,94607,5108345740,1,http://laney.peralta.edu,2,1,3,2,2,2,11,1,-2, ,4,40,4,6001,Alameda County,-122.263779,37.797155
Lassen Community College,Hwy 139,Susanville,CA,96130,5302576181,1,http://lassencollege.edu/index.html,2,1,3,2,2,2,42,1,-2, ,4,40,2,6035,Lassen County,-120.63329,40.53659
Life Chiropractic College West,25001 Industrial Blvd.,Hayward,CA,94545-2800,5107804500,1,http://www.lifewest.edu,1,2,9,2,2,2,41,1,-2, ,1,53,1,6001,Alameda County,-122.116422,37.637721
Lincoln University,401 15th Street,Oakland,CA,94612-2801,5106288010,1,http://www.lincolnuca.edu,1,2,9,2,2,2,11,1,-2, ,2,55,1,6001,Alameda County,-122.269415,37.80478
Southern California Seminary,2075 E. Madison Avenue,El Cajon,CA,92019-1108,6192018999,1,http://www.socalsem.edu,1,2,9,2,2,2,21,1,-2, ,2,-3,1,6073,San Diego County,-116.905476,32.8008
La Sierra University,4500 Riverwalk Parkway,Riverside,CA,92515-8247,9517852000,1,http://www.lasierra.edu,1,2,9,2,2,2,11,1,-2, ,2,21,2,6065,Riverside County,-117.493645,33.91154
Loma Linda University, ,Loma Linda,CA,92350,9095581000,1,http://www.llu.edu,1,2,9,2,2,1,21,1,-2, ,2,16,2,6071,San Bernardino County,-117.260002,34.052617
Long Beach City College,4901 E. Carson St.,Long Beach,CA,90808-1706,5629384111,1,http://www.lbcc.edu,2,1,4,2,2,2,11,1,-2, ,4,40,5,6037,Los Angeles County,-118.13532,33.83246
Southern California University of Health Sciences,16200 East Amber Valley Drive,Whittier,CA,90604,5629478755,1,http://www.scuhs.edu,1,2,9,2,2,2,21,1,-2,Los Angeles College of Chiropractic |College of Acupuncture and Oriental Medicine,1,53,1,6037,Los Angeles County,-117.984921,33.924653
Los Angeles Community College District Office,770 Wilshire Blvd,Los Angeles,CA,90017,2138912000,2,http://www.laccd.edu,2,1,4,2,2,-2,11,1,-2, ,-2,-3,-2,6037,Los Angeles County,-118.257715,34.049128
Los Angeles Harbor College,1111 Figueroa Place,Wilmington,CA,90744-2397,3102334000,1,http://www.lahc.edu,2,1,4,2,2,2,11,1,-2,Harbor College,4,40,4,6037,Los Angeles County,-118.281264,33.783613
Los Angeles Pierce College,6201 Winnetka Ave,Woodland Hills,CA,91371-0002,8183476401,1,http://www.piercecollege.edu,2,1,4,2,2,2,11,1,-2,Pierce College |LA Pierce College,4,40,5,6037,Los Angeles County,-118.571017,34.182965
Los Angeles Southwest College,1600 W Imperial Hwy.,Los Angeles,CA,90047-4899,3232415225,1,http://www.lasc.edu,2,1,3,2,2,2,21,1,-2, ,4,40,3,6037,Los Angeles County,-118.304657,33.930835
Los Angeles Trade Technical College,400 W Washington Blvd,Los Angeles,CA,90015-4181,2137637000,1,http://www.lattc.edu,2,1,4,2,2,2,11,1,-2, ,4,40,4,6037,Los Angeles County,-118.260051,34.028898
Los Angeles Valley College,5800 Fulton Avenue,Valley Glen,CA,91401-4096,8189472600,1,http://www.lavc.edu,2,1,4,2,2,2,11,1,-2,Valley College |LA Valley College,4,40,5,6037,Los Angeles County,-118.422512,34.175771
The Master's College and Seminary,21726 Placerita Canyon Road,Santa Clarita,CA,91321-1200,6612593540,1,http://www.masters.edu,1,2,9,2,2,2,22,1,-2, ,2,32,2,6037,Los Angeles County,-118.515963,34.381883
Los Angeles City College,855 N Vermont Ave,Los Angeles,CA,90029,3239534000,1,http://www.lacitycollege.edu/,2,1,4,2,2,2,11,1,-2, ,4,40,5,6037,Los Angeles County,-118.291791,34.086786
Los Angeles County College of Nursing and Allied Health,1237 N. Mission Rd.,Los Angeles,CA,90033-1084,3232264911,1,http://ladhs.org/wps/portal/CollegeofNursing,2,1,3,2,2,2,11,1,-2,L.A. County School of Nursing,4,40,1,6037,Los Angeles County,-118.212214,34.062156
Los Angeles Mission College,13356 Eldridge Avenue,Sylmar,CA,91342-3245,8183647600,1,http://www.lamission.edu,2,1,4,2,2,2,11,1,-2, ,4,40,4,6037,Los Angeles County,-118.42038,34.314665
Los Medanos College,2700 East Leland Road,Pittsburg,CA,94565,9254392181,1,http://www.losmedanos.edu,2,1,3,2,2,2,22,1,-2,LMC,4,40,3,6013,Contra Costa County,-121.856609,38.007949
Los Rios Community College District Office,1919 Spanos Ct,Sacramento,CA,95825-3981,9165683041,2,http://www.losrios.edu/,2,1,4,2,2,-2,13,1,-2,LRCCD,-2,-3,-2,6067,Sacramento County,-121.417032,38.579293
The Art Institute of California-San Francisco,1170 Market St,San Francisco,CA,94102-4908,4158650198,1,http://www.artinstitutes.edu/san-francisco/,1,3,7,2,-2,2,11,1,-2,"AiCA-SF, The Art Institute of California - SF",2,56,2,6075,San Francisco County,-122.414032,37.779289
Loyola Marymount University,One Lmu Drive,Los Angeles,CA,90045-2659,3103382700,1,http://www.lmu.edu,1,2,9,2,2,2,11,1,-2, ,2,21,3,6037,Los Angeles County,-118.41614,33.96968
Lu Ross Academy,470 East Thompson Blvd,Ventura,CA,93001-2729,8056435690,1,,3,3,2,2,-2,2,12,1,-2, ,6,-3,1,6111,Ventura County,-119.294046,34.278265
Manchester Beauty College,3756 N Blackstone Ave,Fresno,CA,93726,5592244242,1,,3,3,2,2,-2,2,11,1,-2, ,6,-3,1,6019,Fresno County,-119.790444,36.785946
Tulare Beauty College,1400 W Inyo St,Tulare,CA,93274,5592297480,1,,3,3,2,2,-2,2,31,1,-2, ,6,-3,1,6107,Tulare County,-119.366807,36.203684
Lyles Bakersfield College of Beauty,2935 F St,Bakersfield,CA,93301,6613279784,1,,3,3,2,2,-2,2,11,1,-2, ,6,-3,1,6029,Kern County,-119.023499,35.386537
Lyles College of Beauty,6735 N First Ave Ste 112,Fresno,CA,93710,5594316060,1,,3,3,2,2,-2,2,11,1,-2, ,6,-3,1,6019,Fresno County,-119.7738,36.83658
Lytles Redwood Empire Beauty College Inc,186 Wikiup Dr,Santa Rosa,CA,95403,7075458490,1,http://www.lytles-rebc.com,3,3,2,2,-2,2,21,1,-2, ,6,-3,1,6097,Sonoma County,-122.757328,38.508647
MTI Business College Inc,6006 N. El Dorado Street,Stockton,CA,95207-4349,2099573030,1,http://www.mtistockton.com,3,3,2,2,-2,2,11,1,-2, ,6,-3,1,6077,San Joaquin County,-121.308745,38.007848
MTI College,5221 Madison Ave,Sacramento,CA,95841-9817,9163391500,1,http://www.mticollege.edu,2,3,3,2,-2,2,21,1,-2, ,4,40,1,6067,Sacramento County,-121.34191,38.660881
Kaplan College-Sacramento,"4330 Watt Ave., Suite 400",Sacramento,CA,95821,9166498168,1,http://getinfo.kaplancollege.com/KaplanCollegePortal/KaplanCollegeCampuses/California/Sacramento/,2,3,4,2,-2,2,21,1,-2, ,4,40,1,6067,Sacramento County,-121.383139,38.64397
Kaplan College-San Diego,9055 Balboa Avenue,San Diego,CA,92123,8582794500,1,http://san-diego.kaplancollege.com/Pages/Homepage.aspx,2,3,4,2,-2,2,11,1,-2, ,4,40,2,6073,San Diego County,-117.134489,32.82183
Kaplan College-Vista,2022 University Dr,Vista,CA,92083-7736,7606301555,1,http://getinfo.kaplancollege.com/KaplanCollegePortal/KaplanCollegeCampuses/California/SanDiegoNorthCounty/,2,3,4,2,-2,2,21,1,-2, ,4,40,2,6073,San Diego County,-117.221698,33.170924
College of Marin,835 College Ave,Kentfield,CA,94904-2590,4154578811,1,http://www.marin.edu,2,1,3,2,2,2,21,1,-2, ,4,40,3,6041,Marin County,-122.548072,37.955207
Marinello Schools of Beauty-Los Angeles,1241 S. Soto Street Suite #101,Los Angeles,CA,90023,5629452211,1,http://www.marinello.com,3,3,2,2,-2,2,11,1,-2, ,6,-3,2,6037,Los Angeles County,-118.219549,34.027249
Marymount College,30800 Palos Verdes Drive East,Rancho Palos Verdes,CA,90275-6299,3103775501,1,http://www.marymountpv.edu,1,2,5,2,2,2,21,1,-2, ,3,40,1,6037,Los Angeles County,-118.333978,33.73563
Mendocino College,1000 Hensley Creek Road,Ukiah,CA,95482,7074683235,1,http://www.mendocino.edu,2,1,3,2,2,2,41,1,-2, ,4,40,2,6045,Mendocino County,-123.213437,39.185483
Menlo College,1000 El Camino Real,Atherton,CA,94027-4301,8005563656,1,http://www.menlo.edu,1,2,5,2,2,2,21,1,-2,Menlo,2,32,1,6081,San Mateo County,-122.194119,37.459047
Mennonite Brethren Biblical Seminary,4824 E Butler,Fresno,CA,93727-5097,5594532310,1,http://www.mbseminary.edu,1,2,7,2,2,2,11,1,-2, ,1,51,1,6019,Fresno County,-119.735095,36.728619
Merced College,3600 M St,Merced,CA,95348-2898,2093846000,1,http://www.mccd.edu,2,1,4,2,2,2,41,1,-2,Merced Community College District,4,40,4,6047,Merced County,-120.478049,37.332158
Merritt College,12500 Campus Dr,Oakland,CA,94619-3196,5105314911,1,http://www.merritt.edu,2,1,4,2,2,2,11,1,-2, ,4,40,3,6001,Alameda County,-122.168114,37.788821
Mills College,5000 MacArthur Blvd,Oakland,CA,94613,5104302255,1,http://www.mills.edu,1,2,9,2,2,2,11,1,-2, ,2,31,2,6001,Alameda County,-122.187847,37.782673
MiraCosta College,One Barnard Drive,Oceanside,CA,92056-3899,7607572121,1,http://www.miracosta.edu,2,1,4,2,2,2,21,1,-2, ,4,40,4,6073,San Diego County,-117.30097,33.18992
Marinello Schools of Beauty-San Francisco,1087 Mission Street,San Francisco,CA,94103,5629452211,1,http://www.marinello.com,3,3,2,2,-2,2,11,1,-2, ,6,-3,1,6075,San Francisco County,-122.410637,37.779456
Mission College,3000 Mission College Blvd,Santa Clara,CA,95054-1897,4089882200,1,http://www.missioncollege.org/,2,1,4,2,2,2,12,1,-2, ,4,40,4,6085,Santa Clara County,-121.981977,37.387545
Modern Beauty Academy,699 South C St,Oxnard,CA,93030,8054834994,1,,3,3,2,2,-2,2,12,1,-2, ,6,-3,1,6111,Ventura County,-119.1812,34.195136
Kaplan College-North Hollywood,6180 Laurel Cyn Blvd Ste 101,North Hollywood,CA,91606-3231,8187546051,1,http://kaplancollege.com,2,3,4,2,-2,2,11,1,-2, ,6,40,1,6037,Los Angeles County,-118.396398,34.182681
Modesto Junior College,435 College Ave,Modesto,CA,95350-5800,2095756550,1,http://mjc.edu,2,1,3,2,2,2,12,1,-2,MJC,4,40,4,6099,Stanislaus County,-121.007484,37.653033
Moler Barber College,3815 Telegraph Ave,Oakland,CA,94609-2419,5106524177,1,,3,3,2,2,-2,2,11,1,-2, ,6,-3,1,6001,Alameda County,-122.265144,37.826835
Monterey Institute of International Studies,460 Pierce Street,Monterey,CA,93940,8316474100,1,http://www.miis.edu,1,2,7,2,-2,2,22,1,-2,Monterey Institute,2,21,1,6053,Monterey County,-121.896838,36.599227
Monterey Peninsula College,980 Fremont St,Monterey,CA,93940-4799,8316464000,1,http://www.mpc.edu,2,1,4,2,2,2,22,1,-2, ,4,40,3,6053,Monterey County,-121.884589,36.594052
Moorpark College,7075 Campus Rd,Moorpark,CA,93021-1695,8053781400,1,http://www.moorparkcollege.edu/index.shtml,2,1,4,2,2,2,22,1,-2, ,4,40,4,6111,Ventura County,-118.832034,34.299866
Mt. San Antonio College,1100 N Grand Ave,Walnut,CA,91789-1399,9095945611,1,http://www.mtsac.edu,2,1,4,2,2,2,21,1,-2,Mt. SAC,4,40,5,6037,Los Angeles County,-117.844435,34.041386
Mount St Mary's College,12001 Chalon Rd,Los Angeles,CA,90049-1599,3109544000,1,http://www.msmc.la.edu,1,2,9,2,2,2,11,1,-2, ,2,21,2,6037,Los Angeles County,-118.479825,34.083329
Mt. San Jacinto Community College District,1499 N. State S.,San Jacinto,CA,92583-2399,9514876752,1,http://www.msjc.edu,2,1,3,2,2,2,22,1,-2,Mt. San Jacinto CCD,4,40,4,6065,Riverside County,-116.97192,33.80723
Mueller College,123 Camino de la Reina,San Diego,CA,92108-3002,6192919811,1,http://www.mueller.edu,3,3,2,2,-2,2,11,1,-2, ,6,-3,1,6073,San Diego County,-117.163556,32.766008
Musicians Institute,6752 Hollywood Blvd.,Hollywood,CA,90028,3234621384,1,http://www.mi.edu,1,3,5,2,-2,2,11,1,-2, ,3,56,2,6037,Los Angeles County,-118.337911,34.101495
Napa Valley College,2277 Napa-Vallejo Hwy,Napa,CA,94558-6236,7072533000,1,http://www.napavalley.edu,2,1,3,2,2,2,13,1,-2, ,4,40,3,6055,Napa County,-122.272572,38.272366
Everest College-San Francisco,814 Mission St  Suite 500,San Francisco,CA,94103-9946,4157772500,1,,3,3,2,2,-2,2,11,1,-2, ,6,-3,1,6075,San Francisco County,-122.404639,37.784294
Everest College-Reseda,18040 Sherman Way Ste 400,Reseda,CA,91335-4631,8187740550,1,http://www.everest.edu/campus/reseda,2,3,3,2,-2,2,11,1,-2, ,4,-3,1,6037,Los Angeles County,-118.526684,34.201076
Everest College-LA Wilshire,3460 Wilshire Blvd Ste 500,Los Angeles,CA,90010,2133889950,1,http://www.everest.edu/campus/la_wilshire,2,3,3,2,-2,2,11,1,-2, ,4,-3,1,6037,Los Angeles County,-118.299071,34.061758
Everest College-San Jose,1245 South Winchester Blvd #102,San Jose,CA,95128,4082464171,1,http://www.everest.edu/campus/san_jose,3,3,2,2,-2,2,11,1,-2, ,6,-3,1,6085,Santa Clara County,-121.950117,37.303389
Everest College-Gardena,"1045 W. Redondo Beach Boulevard, Suite 275",Gardena,CA,90247,3105277105,1,http://www.everest.edu/campus/gardena,2,3,3,2,-2,2,13,1,-2, ,4,-3,1,6037,Los Angeles County,-118.292958,33.892443
Everest College-Alhambra,2215 Mission Rd,Alhambra,CA,91803,6269794940127,1,http://www.everest.edu/campus/alhambra,3,3,2,2,-2,2,21,1,-2, ,6,-3,1,6037,Los Angeles County,-118.148596,34.079849
Everest College-San Bernardino,"217 E. Club Center Drive, Ste. A",San Bernardino,CA,92408,9097773300,1,http://everest.edu/campus/san_bernardino,2,3,3,2,-2,2,12,1,-2, ,4,-3,1,6071,San Bernardino County,-117.28254,34.060414
The National Hispanic University,14271 Story Rd,San Jose,CA,95127-3823,4082546900,1,http://www.nhu.edu,1,3,7,2,-2,2,11,1,-2,NHU,2,31,1,6085,Santa Clara County,-121.815229,37.358764
National Holistic Institute,5900 Doyle Street,Emeryville,CA,94608-2008,5105476442,1,http://www.nhi.edu,3,3,2,2,-2,2,21,1,-2, ,6,-3,1,6001,Alameda County,-122.28799,37.841666
National University,11255 North Torrey Pines Road,La Jolla,CA,92037-1011,8006288648,1,http://www.nu.edu,1,2,7,2,2,2,41,1,-2, ,2,21,4,6073,San Diego County,-117.244243,32.909469
Naval Postgraduate School,1 University Circle,Monterey,CA,93943,8316562511,6,http://www.nps.edu,1,1,9,2,-1,2,22,0,-2, ,1,59,2,6053,Monterey County,-121.873391,36.596689
Newschool of Architecture and Design,1249 F St,San Diego,CA,92101,6196848800,1,http://www.newschoolarch.edu,1,3,7,2,-2,2,11,1,-2, ,2,56,1,6073,San Diego County,-117.153151,32.713656
Newberry School of Beauty,16860 Devonshire Blvd,Granada Hills,CA,91344-7401,8183663211,1,,3,3,2,2,-2,2,11,1,-2, ,6,-3,1,6037,Los Angeles County,-118.499348,34.257443
North Adrians Beauty College,124 Floyd Ave,Modesto,CA,95350-2381,2095262040,1,http://www.adrians.edu,3,3,2,2,-2,2,12,1,-2,"North Adrian's College of Beauty, Inc.",6,-3,1,6099,Stanislaus County,-120.992748,37.67816
North Orange County Community College District,1830 W. Romneya Drive,Anaheim,CA,92801-1819,7148084500,2,http://www.nocccd.edu,2,1,3,2,2,-2,11,1,-2, ,-2,-3,-2,6059,Orange County,-117.945544,33.850606
North-West College-Pomona,134 W Holt Ave,Pomona,CA,91768,9096231552,1,http://www.north-westcollege.com,3,3,2,2,-2,2,12,1,-2, ,6,-3,1,6037,Los Angeles County,-117.751125,34.062305
North-West College-West Covina,2121 W Garvey Ave,West Covina,CA,91790,6269605046,1,http://www.northwestcollege.com,3,3,2,2,-2,2,21,1,-2, ,6,-3,1,6037,Los Angeles County,-117.950366,34.071699
North-West College-Pasadena,530 E Union,Pasadena,CA,91101,6267965815,1,http://www.north-westcollege.com,3,3,2,2,-2,2,12,1,-2, ,6,-3,1,6037,Los Angeles County,-118.139751,34.147184
Northwestern Polytechnic University,47671 Westinghouse Drive,Fremont,CA,94539,5106575913,6,http://www.npu.edu,1,2,9,2,2,2,41,1,-2, ,2,54,1,6001,Alameda County,-121.9256,37.478715
Notre Dame de Namur University,1500 Ralston Ave,Belmont,CA,94002-1908,6505083500,1,http://www.ndnu.edu,1,2,7,2,2,2,21,1,-2,NDNU,2,21,2,6081,San Mateo County,-122.28461,37.514873
Occidental College,1600 Campus Rd,Los Angeles,CA,90041-3392,3232592500,1,http://www.oxy.edu,1,2,7,2,2,2,11,1,-2,Oxy,2,31,2,6037,Los Angeles County,-118.214384,34.126539
Oceanside College of Beauty,1575 S Coast Hwy,Oceanside,CA,92054-5356,7607576161215,1,http://ocb.edu,3,3,2,2,-2,2,21,1,-2, ,6,-3,1,6073,San Diego County,-117.365054,33.178642
Ohlone Community College,43600 Mission Blvd,Fremont,CA,94539-0390,5106596000,1,http://www.ohlone.edu,2,1,3,2,2,2,41,1,-2, ,4,40,4,6001,Alameda County,-121.918603,37.528467
Orange Coast College,2701 Fairview Road,Costa Mesa,CA,92626,7144325072,1,http://www.orangecoastcollege.edu/,2,1,4,2,2,2,12,1,-2, ,4,40,5,6059,Orange County,-117.907811,33.673452
Otis College of Art and Design,9045 Lincoln Blvd,Los Angeles,CA,90045-3505,8005276847,1,http://www.otis.edu,1,2,7,2,2,2,11,1,-2,"Otis Art Institute, Otis Parsons, Otis/Parsons",2,56,2,6037,Los Angeles County,-118.416443,33.956926
Oxnard College,4000 S Rose Ave,Oxnard,CA,93033-6699,8059865800,1,http://www.oxnardcollege.edu,2,1,4,2,2,2,12,1,-2, ,4,40,3,6111,Ventura County,-119.159282,34.163698
Hope International University,2500 E Nutwood Ave,Fullerton,CA,92831-3199,7148793901,1,http://www.hiu.edu,1,2,7,2,2,2,12,1,-2,Hope|HIU|Pacific Christian College|PCC|School of Graduate and Professional Studies|SGPS| Hope University|Fullerton|Orange County|California|,2,21,2,6059,Orange County,-117.885178,33.878055
Concorde Career College-San Diego,"4393 Imperial Avenue, Suite 100",San Diego,CA,92113-1964,6196880800,1,http://www.concorde.edu,2,3,3,2,-2,2,11,1,-2, ,4,-3,1,6073,San Diego County,-117.101752,32.704012
Palo Alto University,1791 Arastradero Rd,Palo Alto,CA,94304-1337,8008186136,1,http://www.paloaltou.edu,1,2,9,2,2,2,41,1,-2,Pacific Graduate School of Psychology,2,59,1,6085,Santa Clara County,-122.186022,37.383251
Pacific Lutheran Theological Seminary,2770 Marin Ave,Berkeley,CA,94708-1597,5105245264,1,http://www.plts.edu,1,2,8,2,2,2,12,1,-2, ,1,51,1,6001,Alameda County,-122.260139,37.898184
Pacific Oaks College,5 Westmoreland Pl,Pasadena,CA,91103-3565,6263971300,1,http://www.pacificoaks.edu,1,2,8,2,2,2,12,1,-2,Pacific Oaks Education Corporation,2,59,1,6037,Los Angeles County,-118.160158,34.152084
Pacific School of Religion,1798 Scenic Ave,Berkeley,CA,94709,5108480528,1,http://www.psr.edu,1,2,9,2,2,2,12,1,-2, ,1,51,1,6001,Alameda County,-122.262525,37.876284
Pacific States University,3450 Wilshire Blvd. 5th Floor,Los Angeles,CA,90010,3237312383,1,http://www.psuca.edu,1,2,9,2,2,2,11,1,-2, ,2,55,1,6037,Los Angeles County,-118.298941,34.061705
Pacific Union College,One Angwin Ave,Angwin,CA,94508-9707,7079656313,1,http://www.puc.edu,1,2,7,2,2,2,41,1,-2,PUC,2,32,2,6055,Napa County,-122.44028,38.56901
University of the Pacific,3601 Pacific Ave,Stockton,CA,95211-0197,2099462011,1,http://www.pacific.edu,1,2,9,2,2,1,11,1,-2,Pacific | UOP | University of Pacific | Pacific University | U. Pacific | Univ. of Pacific | U. of Pacific,2,16,3,6077,San Joaquin County,-121.307319,37.980586
Palmer College of Chiropractic-San Jose,90 E Tasman Dr,San Jose,CA,95134-1617,4089446000,1,http://www.palmer.edu,1,2,9,2,2,2,11,1,-2, ,1,53,1,6085,Santa Clara County,-121.9421,37.410401
Palo Verde College,One College Drive,Blythe,CA,92225,7609215500,1,http://www.paloverde.edu,2,1,3,2,2,2,41,1,-2, ,4,40,2,6029,Kern County,-119.1176,35.30902
Palomar College,1140 W. Mission,San Marcos,CA,92069-1487,7607441150,1,http://WWW.PALOMAR.EDU,2,1,3,2,2,2,13,1,-2, ,4,40,5,6073,San Diego County,-117.182773,33.149192
Marinello Schools of Beauty-Paramount,8527 Alondra Blvd Ste 129,Paramount,CA,90723,5629452211,1,http://www.marinello.com,3,3,2,2,-2,2,13,1,-2, ,6,-3,1,6037,Los Angeles County,-118.15017,33.889282
Paris Beauty College,1655 Willow Pass Road,Concord,CA,94520,9256857603,1,http://www.Parisbeautycollege.com,3,3,2,2,-2,2,21,1,-2, ,6,-3,1,6013,Contra Costa County,-122.043467,37.97223
Pasadena City College,1570 E Colorado Blvd.,Pasadena,CA,91106-2003,6265857123,1,http://www.pasadena.edu,2,1,4,2,2,2,12,1,-2, ,4,40,5,6037,Los Angeles County,-118.119877,34.145976
Patten University,2433 Coolidge Ave,Oakland,CA,94601,51026185000,1,http://www.patten.edu,1,2,7,2,2,2,11,1,-2, ,2,32,2,6001,Alameda County,-122.219188,37.786109
Pepperdine University,24255 Pacific Coast Hwy,Malibu,CA,90263,3105064000,1,http://www.pepperdine.edu/,1,2,9,2,2,2,21,1,-2,Pepperdine University,2,16,3,6037,Los Angeles County,-118.705717,34.034602
Peralta Community College System Office,333 E Eighth St,Oakland,CA,94606,5104667300,2,http://www.peralta.edu,2,1,4,2,2,-2,11,1,-2, ,-2,-3,-2,6001,Alameda County,-122.259687,37.79297
Pitzer College,1050 North Mills Avenue,Claremont,CA,91711-6101,9096218000,1,http://www.pitzer.edu,1,2,5,2,2,2,21,1,-2,Pitzer|Pfizer|PZ|PTZ|PIT,2,31,2,6037,Los Angeles County,-117.707116,34.104441
Platt College-San Diego,6250 El Cajon Blvd,San Diego,CA,92115-3919,6192650107,1,http://www.platt.edu,1,3,5,2,-2,2,11,1,-2, ,3,40,1,6073,San Diego County,-117.063406,32.76359
Point Loma Nazarene University,3900 Lomaland Dr,San Diego,CA,92106-2899,6198492200,1,http://www.pointloma.edu/home.htm,1,2,8,2,2,2,11,1,-2,PLNU,2,22,2,6073,San Diego County,-117.251734,32.717742
Pomona College,550 N College Ave,Claremont,CA,91711-6319,9096218131,1,http://www.pomona.edu,1,2,5,2,2,2,21,1,-2, ,2,31,2,6037,Los Angeles County,-117.714918,34.085106
Porterville College,100 E College Ave,Porterville,CA,93257,5597912200,1,http://www.portervillecollege.edu,2,1,3,2,2,2,13,1,-2, ,4,40,2,6107,Tulare County,-119.011955,36.048655
Westwood College-South Bay,"19700 S. Vermont Avenue, Suite 100",Torrance,CA,90502,3105251260,1,http://www.westwood.edu,1,3,5,2,-2,2,11,1,-2, ,2,-3,1,6037,Los Angeles County,-118.290528,33.851854
Professional Institute of Beauty,10801 E. Valley Mall,El Monte,CA,91731,6264439401,1,http://www.pibschool.com,3,3,2,2,-2,2,21,1,-2, ,6,-3,1,6037,Los Angeles County,-118.039129,34.075294
Santa Ana College,1530 W. 17th Street,Santa Ana,CA,92706-3398,7145646000,1,http://www.sac.edu,2,1,3,2,2,2,11,1,-2,SAC,4,40,5,6059,Orange County,-117.888331,33.759971
Pardee RAND Graduate School,1776 Main St,Santa Monica,CA,90407-2138,31039304117690,1,http://www.prgs.edu,1,2,9,2,2,2,13,1,-2, ,1,59,1,6037,Los Angeles County,-118.490447,34.009885
Shasta School of Cosmetology,678 N Market St,Redding,CA,96003,9162437990,1,,3,3,2,2,-2,2,13,1,-2, ,6,-3,1,6089,Shasta County,-122.386585,40.5973
University of Redlands,1200 E. Colton Ave,Redlands,CA,92373-0999,9097932121,1,http://www.redlands.edu,1,2,9,2,2,2,13,1,-2, ,2,21,2,6071,San Bernardino County,-117.163796,34.062769
College of the Redwoods,7351 Tompkins Hill Rd,Eureka,CA,95501-9300,7074764100,1,http://www.redwoods.edu,2,1,4,2,2,2,33,1,-2, ,4,40,3,6023,Humboldt County,-124.205267,40.702204
Salon Success Academy-Upland,1385 E. Foothill Blvd,Upland,CA,91786,9099824200,1,http://www.gotobeautyschool.com,3,3,2,2,-2,2,21,1,-2, ,6,-3,1,6071,San Bernardino County,-117.631337,34.107009
Salon Success Academy-Corona,"107 N McKinley St, Suite 109",Corona,CA,92879,9099824200,1,http://www.gotobeautyschool.com,3,3,2,2,-2,2,21,1,-2, ,6,-3,1,6065,Riverside County,-117.514431,33.882331
Marinello Schools of Beauty-Huntington Beach,19022 Brookhurst St,Huntington Beach,CA,92646,5629452211,1,http://www.marinello.com,3,3,2,2,-2,2,21,1,-2, ,6,-3,1,6059,Orange County,-117.953908,33.686604
Rio Hondo College,3600 Workman Mill Rd,Whittier,CA,90601-1616,5626920921,1,http://www.riohondo.edu,2,1,4,2,2,2,21,1,-2,RHCCD|RHC,4,40,5,6037,Los Angeles County,-118.037464,34.020358
Riverside City College,4800 Magnolia Avenue,Riverside,CA,92506,95122280008979,1,http://www.rcc.edu/,2,1,4,2,2,2,11,1,-2, ,4,40,5,6065,Riverside County,-117.384718,33.971325
Argosy University-San Francisco Bay Area,1005 Atlantic Avenue,Alameda,CA,94501,5102174700,1,http://www.argosy.edu/sanfrancisco,1,3,9,2,-2,2,21,1,-2, ,2,-3,1,6001,Alameda County,-122.267393,37.780739
Rosemead Beauty School,8531 E Valley Blvd,Rosemead,CA,91770-1639,6262862146,1,,3,3,2,2,-2,2,21,1,-2, ,6,-3,1,6037,Los Angeles County,-118.08296,34.08054
